Date de début;Date de fin;Organisme;code zas;Zas;code site;nom site;type d'implantation;Polluant;type d'influence;Réglementaire;type d'évaluation;type de valeur;valeur;valeur brute;unité de mesure;taux de saisie;couverture temporelle;couverture de données;code qualité;validité;Latitude;Longitude
2018/01/01 00:00:00;2018/12/31 23:59:59;ATMO GRAND EST;FR44ZAG02;ZAG METZ;FR01011;Metz-Centre;Urbaine;NO2;Fond;Oui;mesures fixes;Moy. annuelle;20.0;20.414919400937425;µg-m3;100.0;100;100.0;R;1;49.119442;6.180833
2018/01/01 00:00:00;2018/12/31 23:59:59;ATMO GRAND EST;FR44ZAG02;ZAG METZ;FR01012;Metz-Borny;Urbaine;NO2;Fond;Oui;mesures fixes;Moy. annuelle;17.0;17.360360463781422;µg-m3;99.0;100;99.0;R;1;49.110283;6.223336
2018/01/01 00:00:00;2018/12/31 23:59:59;ATMO GRAND EST;FR44ZRE01;ZR GRAND-EST;FR01016;Atton;Rurale près des villes;NO2;Industrielle;Oui;mesures fixes;Moy. annuelle;19.0;18.54893740564403;µg-m3;98.0;100;98.0;R;1;48.886387;6.093611
2018/01/01 00:00:00;2018/12/31 23:59:59;ATMO GRAND EST;FR44ZAG02;ZAG METZ;FR01018;Scy-Chazelles;Périurbaine;NO2;Fond;Oui;mesures indicatives;Moy. annuelle;14.0;13.701306103063416;µg-m3;96.0;100;96.0;R;1;49.107502;6.122775
2018/01/01 00:00:00;2018/12/31 23:59:59;ATMO GRAND EST;FR44ZAG02;ZAG METZ;FR01019;Thionville-Piscine;Urbaine;NO2;Fond;Oui;mesures fixes;Moy. annuelle;16.0;15.873059096176208;µg-m3;99.0;100;99.0;R;1;49.36861;6.160831
2018/01/01 00:00:00;2018/12/31 23:59:59;ATMO GRAND EST;FR44ZAG02;ZAG METZ;FR01020;Thionville-Centre;Urbaine;NO2;Fond;Oui;mesures fixes;Moy. annuelle;24.0;23.982094866199652;µg-m3;99.0;100;99.0;R;1;49.358337;6.156942
2018/01/01 00:00:00;2018/12/31 23:59:59;ATMO GRAND EST;FR44ZAG02;ZAG METZ;FR01021;Thionville-Garche;Périurbaine;NO2;Fond;Oui;mesures indicatives;Moy. annuelle;14.0;13.676486765211388;µg-m3;100.0;100;100.0;R;1;49.394444;6.201392
2018/01/01 00:00:00;2018/12/31 23:59:59;ATMO GRAND EST;FR44ZAG02;ZAG METZ;FR01022;St-Julien-lès-Metz;Urbaine;NO2;Industrielle;Oui;mesures fixes;Moy. annuelle;14.0;13.899330408681601;µg-m3;99.0;100;99.0;R;1;49.131115;6.207225
2018/01/01 00:00:00;2018/12/31 23:59:59;ATMO GRAND EST;FR44ZAG02;ZAG METZ;FR01059;HAYANGE-MARSPICH;Périurbaine;NO2;Industrielle;Oui;mesures indicatives;Moy. annuelle;18.0;18.05675017397358;µg-m3;98.0;100;98.0;R;1;49.3374;6.08207
2018/01/01 00:00:00;2018/12/31 23:59:59;ATMO GRAND EST;FR44ZRE01;ZR GRAND-EST;FR01060;Malroy;Rurale près des villes;NO2;Fond;Oui;mesures fixes;Moy. annuelle;18.0;18.290442726633927;µg-m3;97.0;100;97.0;R;1;49.16885;6.212669
2018/01/01 00:00:00;2018/12/31 23:59:59;ATMO GRAND EST;FR44ZAG02;ZAG METZ;FR01064;Metz- Pont Grilles;Urbaine;NO2;Trafic;Oui;mesures fixes;Moy. annuelle;30.0;29.516798441617937;µg-m3;100.0;100;100.0;R;1;49.12508;6.181219
2018/01/01 00:00:00;2018/12/31 23:59:59;ATMO GRAND EST;FR44ZRE01;ZR GRAND-EST;FR01065;Belleville sur Meuse;Urbaine;NO2;Trafic;Oui;mesures indicatives;Moy. annuelle;21.0;21.447225821651546;µg-m3;97.0;100;97.0;R;1;49.16778;5.387461
2018/01/01 00:00:00;2018/12/31 23:59:59;ATMO SUD;FR93ZAG01;ZAG MARSEILLE-AIX;FR02005;Martigues l'Ile;Urbaine;NO2;Fond;Oui;mesures fixes;Moy. annuelle;16.0;15.710121923166227;µg-m3;99.0;100;99.0;R;1;43.405297;5.051636
2018/01/01 00:00:00;2018/12/31 23:59:59;ATMO SUD;FR93ZAG01;ZAG MARSEILLE-AIX;FR02013;Fos Les Carabins;Périurbaine;NO2;Fond;Oui;mesures fixes;Moy. annuelle;11.0;11.320684523810337;µg-m3;96.0;96;92.0;R;1;43.458927;4.934572
2018/01/01 00:00:00;2018/12/31 23:59:59;ATMO SUD;FR93ZAG01;ZAG MARSEILLE-AIX;FR02019;Vitrolles;Urbaine;NO2;Fond;Oui;mesures fixes;Moy. annuelle;15.0;15.196119644301747;µg-m3;99.0;100;99.0;R;1;43.44603;5.254136
2018/01/01 00:00:00;2018/12/31 23:59:59;ATMO SUD;FR93ZRE01;ZR PROVENCE-ALPES-COTE D’AZUR;FR02022;Arles;Urbaine;NO2;Fond;Oui;mesures fixes;Moy. annuelle;18.0;17.924299620133354;µg-m3;98.0;98;96.0;R;1;43.675114;4.62921
2018/01/01 00:00:00;2018/12/31 23:59:59;ATMO SUD;FR93ZAG01;ZAG MARSEILLE-AIX;FR02041;SALON;Urbaine;NO2;Fond;Oui;mesures fixes;Moy. annuelle;15.0;15.306742476453893;µg-m3;99.0;100;99.0;R;1;43.639002;5.101097
2018/01/01 00:00:00;2018/12/31 23:59:59;ATMO SUD;FR93ZAG01;ZAG MARSEILLE-AIX;FR02043;Marignane;Urbaine;NO2;Fond;Oui;mesures fixes;Moy. annuelle;21.0;21.36508553654748;µg-m3;97.0;91;88.0;R;1;43.4165306;5.222281
2018/01/01 00:00:00;2018/12/31 23:59:59;ATMO SUD;FR93ZAG01;ZAG MARSEILLE-AIX;FR03006;MARSEILLE RABATAU;Urbaine;NO2;Trafic;Oui;mesures fixes;Moy. annuelle;47.0;47.01670877353848;µg-m3;99.0;100;99.0;R;1;43.276451;5.39736
2018/01/01 00:00:00;2018/12/31 23:59:59;ATMO SUD;FR93ZAG01;ZAG MARSEILLE-AIX;FR03014;MARSEILLE ST LOUIS;Urbaine;NO2;Fond;Oui;mesures fixes;Moy. annuelle;33.0;33.318351673541926;µg-m3;100.0;100;100.0;R;1;43.348048;5.360119
2018/01/01 00:00:00;2018/12/31 23:59:59;ATMO SUD;FR93ZAG01;ZAG MARSEILLE-AIX;FR03021;AIX ROY RENE;Urbaine;NO2;Trafic;Oui;mesures fixes;Moy. annuelle;41.0;40.985596468808865;µg-m3;99.0;100;98.0;R;1;43.524075;5.448164
2018/01/01 00:00:00;2018/12/31 23:59:59;ATMO SUD;FR93ZAG01;ZAG MARSEILLE-AIX;FR03029;AIX CENTRE ECOLE ART;Urbaine;NO2;Fond;Oui;mesures fixes;Moy. annuelle;21.0;21.416398378690722;µg-m3;99.0;100;99.0;R;1;43.530285;5.440912
2018/01/01 00:00:00;2018/12/31 23:59:59;ATMO SUD;FR93ZAG01;ZAG MARSEILLE-AIX;FR03030;GARDANNE;Périurbaine;NO2;Fond;Oui;mesures fixes;Moy. annuelle;23.0;22.738561555580617;µg-m3;99.0;99;97.0;R;1;43.453584;5.466672
2018/01/01 00:00:00;2018/12/31 23:59:59;ATMO SUD;FR93ZAG01;ZAG MARSEILLE-AIX;FR03032;AUBAGNE LES PASSONS;Urbaine;NO2;Fond;Oui;mesures fixes;Moy. annuelle;17.0;16.708737303786343;µg-m3;99.0;100;99.0;R;1;43.293138;5.574184
2018/01/01 00:00:00;2018/12/31 23:59:59;ATMO SUD;FR93ZAG01;ZAG MARSEILLE-AIX;FR03043;MARSEILLE 5 AVENUES;Urbaine;NO2;Fond;Oui;mesures fixes;Moy. annuelle;26.0;25.777975360295937;µg-m3;98.0;100;98.0;R;1;43.305287;5.394716
2018/01/01 00:00:00;2018/12/31 23:59:59;ATMO SUD;FR93ZAG03;ZAG TOULON;FR03060;LA SEYNE GENOUD;Urbaine;NO2;Fond;Oui;mesures fixes;Moy. annuelle;17.0;17.275275355668168;µg-m3;99.0;100;99.0;R;1;43.101565;5.875404
2018/01/01 00:00:00;2018/12/31 23:59:59;ATMO SUD;FR93ZAG03;ZAG TOULON;FR03068;TOULON FOCH;Urbaine;NO2;Trafic;Oui;mesures fixes;Moy. annuelle;37.0;37.3208488805941;µg-m3;99.0;99;98.0;R;1;43.126821;5.921605
2018/01/01 00:00:00;2018/12/31 23:59:59;ATMO SUD;FR93ZAR01;ZAR FREJUS-DRAGUIGNAN;FR03070;ESTEREL;Périurbaine;NO2;Fond;Oui;mesures fixes;Moy. annuelle;11.0;11.07352701917577;µg-m3;99.0;100;98.0;R;1;43.437874;6.76839
2018/01/01 00:00:00;2018/12/31 23:59:59;ATMO SUD;FR93ZAG03;ZAG TOULON;FR03071;TOULON CLARET;Urbaine;NO2;Fond;Oui;mesures fixes;Moy. annuelle;21.0;21.45239737840563;µg-m3;99.0;100;99.0;R;1;43.131113;5.924184
2018/01/01 00:00:00;2018/12/31 23:59:59;ATMO SUD;FR93ZAG04;ZAG AVIGNON;FR03080;AVIGNON   MAIRIE;Urbaine;NO2;Fond;Oui;mesures fixes;Moy. annuelle;17.0;17.157957544463954;µg-m3;99.0;100;99.0;R;1;43.949673;4.804341
2018/01/01 00:00:00;2018/12/31 23:59:59;ATMO SUD;FR93ZAG04;ZAG AVIGNON;FR03084;LE PONTET;Périurbaine;NO2;Fond;Oui;mesures fixes;Moy. annuelle;17.0;17.042517006803266;µg-m3;98.0;99;97.0;R;1;43.960144;4.856731
2018/01/01 00:00:00;2018/12/31 23:59:59;ATMO SUD;FR93ZAG04;ZAG AVIGNON;FR03087;Avignon Semard;Urbaine;NO2;Trafic;Oui;mesures fixes;Moy. annuelle;26.0;26.427124837909112;µg-m3;97.0;100;97.0;R;1;43.93706;4.824909
2018/01/01 00:00:00;2018/12/31 23:59:59;AIRPARIF;FR11ZAG01;ZAG PARIS;FR04002;GENNEVILLIERS;Urbaine;NO2;Fond;Oui;mesures fixes;Moy. annuelle;30.0;30.062210174182667;µg-m3;99.0;100;99.0;R;1;48.930319;2.29435
2018/01/01 00:00:00;2018/12/31 23:59:59;AIRPARIF;FR11ZAG01;ZAG PARIS;FR04004;PARIS 18eme;Urbaine;NO2;Fond;Oui;mesures fixes;Moy. annuelle;36.0;36.31450128818397;µg-m3;94.0;99;93.0;R;1;48.891666;2.346667
2018/01/01 00:00:00;2018/12/31 23:59:59;AIRPARIF;FR11ZAG01;ZAG PARIS;FR04012;Place Victor Basch;Urbaine;NO2;Trafic;Oui;mesures fixes;Moy. annuelle;69.0;68.65375780274402;µg-m3;96.0;47;46.0;N;-1;48.827778;2.3275
2018/01/01 00:00:00;2018/12/31 23:59:59;AIRPARIF;FR11ZAG01;ZAG PARIS;FR04014;PARIS 12eme;Urbaine;NO2;Fond;Oui;mesures fixes;Moy. annuelle;34.0;33.67403962309589;µg-m3;94.0;100;94.0;R;1;48.837223;2.3939
2018/01/01 00:00:00;2018/12/31 23:59:59;AIRPARIF;FR11ZAG01;ZAG PARIS;FR04017;NEUILLY-SUR-SEINE;Urbaine;NO2;Fond;Oui;mesures fixes;Moy. annuelle;34.0;34.03088459285123;µg-m3;97.0;100;97.0;R;1;48.88139;2.278056
2018/01/01 00:00:00;2018/12/31 23:59:59;AIRPARIF;FR11ZAG01;ZAG PARIS;FR04018;AUBERVILLIERS;Urbaine;NO2;Fond;Oui;mesures fixes;Moy. annuelle;33.0;33.339995373581196;µg-m3;99.0;100;99.0;R;1;48.9039;2.3847
2018/01/01 00:00:00;2018/12/31 23:59:59;AIRPARIF;FR11ZAG01;ZAG PARIS;FR04024;GONESSE;Périurbaine;NO2;Fond;Oui;mesures fixes;Moy. annuelle;24.0;24.08974076791419;µg-m3;93.0;100;93.0;R;1;48.99083;2.444722
2018/01/01 00:00:00;2018/12/31 23:59:59;AIRPARIF;FR11ZAG01;ZAG PARIS;FR04029;VERSAILLES;Périurbaine;NO2;Fond;Oui;mesures fixes;Moy. annuelle;21.0;21.173945523503512;µg-m3;99.0;100;99.0;R;1;48.799168;2.130556
2018/01/01 00:00:00;2018/12/31 23:59:59;AIRPARIF;FR11ZAG01;ZAG PARIS;FR04031;Av Champs Elysees;Urbaine;NO2;Trafic;Oui;mesures fixes;Moy. annuelle;45.0;45.4076959009667;µg-m3;98.0;99;98.0;R;1;48.868772;2.311231
2018/01/01 00:00:00;2018/12/31 23:59:59;AIRPARIF;FR11ZAG01;ZAG PARIS;FR04034;VITRY-SUR-SEINE;Urbaine;NO2;Fond;Oui;mesures fixes;Moy. annuelle;30.0;29.809212984585514;µg-m3;98.0;100;98.0;R;1;48.775897;2.375788
2018/01/01 00:00:00;2018/12/31 23:59:59;AIRPARIF;FR11ZAG01;ZAG PARIS;FR04037;PARIS 13eme;Urbaine;NO2;Fond;Oui;mesures fixes;Moy. annuelle;31.0;30.69089948332432;µg-m3;97.0;100;97.0;R;1;48.82861;2.360278
2018/01/01 00:00:00;2018/12/31 23:59:59;AIRPARIF;FR11ZRE01;ZR ILE-DE-FRANCE;FR04038;Zone Rurale SO;Rurale régionale;NO2;Fond;Oui;mesures fixes;Moy. annuelle;9.0;8.738149088391745;µg-m3;99.0;100;99.0;R;1;48.581944;1.883333
2018/01/01 00:00:00;2018/12/31 23:59:59;AIRPARIF;FR11ZAG01;ZAG PARIS;FR04051;ARGENTEUIL;Urbaine;NO2;Fond;Oui;mesures fixes;Moy. annuelle;26.0;26.356738167404593;µg-m3;98.0;100;98.0;R;1;48.95139;2.223611
2018/01/01 00:00:00;2018/12/31 23:59:59;AIRPARIF;FR11ZAG01;ZAG PARIS;FR04058;Auto A1 -Saint-Denis;Urbaine;NO2;Trafic;Oui;mesures fixes;Moy. annuelle;80.0;80.16703019171005;µg-m3;99.0;100;99.0;R;1;48.925278;2.356667
2018/01/01 00:00:00;2018/12/31 23:59:59;AIRPARIF;FR11ZAG01;ZAG PARIS;FR04059;SAINT-DENIS;Urbaine;NO2;Fond;Oui;mesures fixes;Moy. annuelle;30.0;29.754651442306507;µg-m3;95.0;100;95.0;R;1;48.93722;2.361667
2018/01/01 00:00:00;2018/12/31 23:59:59;AIRPARIF;FR11ZAG01;ZAG PARIS;FR04060;PARIS 7eme;Urbaine;NO2;Fond;Oui;mesures fixes;Moy. annuelle;34.0;33.67123621590083;µg-m3;99.0;100;98.0;R;1;48.8572;2.2933
2018/01/01 00:00:00;2018/12/31 23:59:59;AIRPARIF;FR11ZAG01;ZAG PARIS;FR04063;MANTES-LA-JOLIE;Périurbaine;NO2;Fond;Oui;mesures fixes;Moy. annuelle;19.0;19.372096003729244;µg-m3;98.0;100;98.0;R;1;48.9964;1.7033
2018/01/01 00:00:00;2018/12/31 23:59:59;AIRPARIF;FR11ZAG01;ZAG PARIS;FR04069;MELUN;Périurbaine;NO2;Fond;Oui;mesures fixes;Moy. annuelle;19.0;18.98030675565009;µg-m3;98.0;100;98.0;R;1;48.54139;2.661389
2018/01/01 00:00:00;2018/12/31 23:59:59;AIRPARIF;FR11ZAG01;ZAG PARIS;FR04071;Rue Bonaparte;Urbaine;NO2;Trafic;Oui;mesures fixes;Moy. annuelle;46.0;46.47750061439883;µg-m3;93.0;100;93.0;R;1;48.856388;2.335278
2018/01/01 00:00:00;2018/12/31 23:59:59;AIRPARIF;FR11ZAG01;ZAG PARIS;FR04098;LOGNES;Urbaine;NO2;Fond;Oui;mesures fixes;Moy. annuelle;24.0;24.222120027592542;µg-m3;99.0;100;99.0;R;1;48.84028;2.635278
2018/01/01 00:00:00;2018/12/31 23:59:59;AIRPARIF;FR11ZAG01;ZAG PARIS;FR04100;VILLEMOMBLE;Urbaine;NO2;Fond;Oui;mesures fixes;Moy. annuelle;28.0;27.695571742397235;µg-m3;99.0;100;99.0;R;1;48.881947;2.507222
2018/01/01 00:00:00;2018/12/31 23:59:59;AIRPARIF;FR11ZAG01;ZAG PARIS;FR04101;CHAMPIGNY-SUR-MARNE;Urbaine;NO2;Fond;Oui;mesures fixes;Moy. annuelle;28.0;27.933230063108645;µg-m3;99.0;100;99.0;R;1;48.816387;2.5175
2018/01/01 00:00:00;2018/12/31 23:59:59;AIRPARIF;FR11ZAG01;ZAG PARIS;FR04118;Place de l'Opéra;Urbaine;NO2;Trafic;Oui;mesures fixes;Moy. annuelle;65.0;65.16251489868557;µg-m3;98.0;98;96.0;R;1;48.870274;2.3325
2018/01/01 00:00:00;2018/12/31 23:59:59;AIRPARIF;FR11ZAG01;ZAG PARIS;FR04122;RN6-MELUN;Périurbaine;NO2;Trafic;Oui;mesures fixes;Moy. annuelle;42.0;42.02590848726095;µg-m3;95.0;100;95.0;R;1;48.528057;2.653611
2018/01/01 00:00:00;2018/12/31 23:59:59;AIRPARIF;FR11ZAG01;ZAG PARIS;FR04123;RN2-PANTIN;Urbaine;NO2;Trafic;Oui;mesures fixes;Moy. annuelle;56.0;56.10885330821466;µg-m3;97.0;100;97.0;R;1;48.90222;2.390833
2018/01/01 00:00:00;2018/12/31 23:59:59;AIRPARIF;FR11ZAG01;ZAG PARIS;FR04131;Boulevard Haussmann;Urbaine;NO2;Trafic;Oui;mesures fixes;Moy. annuelle;52.0;52.21423818264974;µg-m3;99.0;100;99.0;R;1;48.873333;2.330278
2018/01/01 00:00:00;2018/12/31 23:59:59;AIRPARIF;FR11ZAG01;ZAG PARIS;FR04135;Boulevard Soult;Urbaine;NO2;Trafic;Oui;mesures fixes;Moy. annuelle;42.0;42.064927436072075;µg-m3;99.0;100;99.0;R;1;48.83796;2.408061
2018/01/01 00:00:00;2018/12/31 23:59:59;AIRPARIF;FR11ZAG01;ZAG PARIS;FR04141;Quai des Celestins;Urbaine;NO2;Trafic;Oui;mesures fixes;Moy. annuelle;59.0;58.91490719257278;µg-m3;99.0;99;98.0;R;1;48.85278;2.360556
2018/01/01 00:00:00;2018/12/31 23:59:59;AIRPARIF;FR11ZAG01;ZAG PARIS;FR04143;PARIS Centre;Urbaine;NO2;Fond;Oui;mesures fixes;Moy. annuelle;34.0;34.23224616802846;µg-m3;99.0;100;99.0;R;1;48.859001;2.351
2018/01/01 00:00:00;2018/12/31 23:59:59;AIRPARIF;FR11ZAG01;ZAG PARIS;FR04146;IVRY-SUR-SEINE;Urbaine;NO2;Fond;Oui;mesures fixes;Moy. annuelle;37.0;36.56731532962748;µg-m3;58.0;49;29.0;N;-1;48.8175;2.395
2018/01/01 00:00:00;2018/12/31 23:59:59;AIRPARIF;FR11ZAG01;ZAG PARIS;FR04149;MONTGERON;Urbaine;NO2;Fond;Oui;mesures fixes;Moy. annuelle;24.0;23.542969032413694;µg-m3;95.0;100;95.0;R;1;48.7067;2.4572
2018/01/01 00:00:00;2018/12/31 23:59:59;AIRPARIF;FR11ZAG01;ZAG PARIS;FR04150;LA DEFENSE;Urbaine;NO2;Fond;Oui;mesures fixes;Moy. annuelle;33.0;32.76108466508054;µg-m3;67.0;100;67.0;N;-1;48.891388;2.240556
2018/01/01 00:00:00;2018/12/31 23:59:59;AIRPARIF;FR11ZAG01;ZAG PARIS;FR04156;BOBIGNY;Urbaine;NO2;Fond;Oui;mesures fixes;Moy. annuelle;30.0;29.607766869639693;µg-m3;92.0;100;92.0;R;1;48.902504;2.4525
2018/01/01 00:00:00;2018/12/31 23:59:59;AIRPARIF;FR11ZAG01;ZAG PARIS;FR04179;PARIS Stade Lenglen;Urbaine;NO2;Fond;Oui;mesures fixes;Moy. annuelle;28.0;27.525906862744176;µg-m3;97.0;96;93.0;R;1;48.830387;2.269889
2018/01/01 00:00:00;2018/12/31 23:59:59;AIRPARIF;FR11ZAG01;ZAG PARIS;FR04180;RN20 - MONTLHERY;Périurbaine;NO2;Trafic;Oui;mesures fixes;Moy. annuelle;63.0;62.85265156154016;µg-m3;93.0;100;93.0;R;1;48.64093;2.26872
2018/01/01 00:00:00;2018/12/31 23:59:59;AIRPARIF;FR11ZAG01;ZAG PARIS;FR04319;TREMBLAY-EN-FRANCE;Périurbaine;NO2;Fond;Oui;mesures fixes;Moy. annuelle;27.0;27.137588487872303;µg-m3;99.0;99;98.0;R;1;48.95555;2.575278
2018/01/01 00:00:00;2018/12/31 23:59:59;AIRPARIF;FR11ZAG01;ZAG PARIS;FR04323;EVRY;Urbaine;NO2;Fond;Oui;mesures fixes;Moy. annuelle;25.0;24.550791102957856;µg-m3;100.0;100;100.0;R;1;48.62722;2.429167
2018/01/01 00:00:00;2018/12/31 23:59:59;AIRPARIF;FR11ZRE01;ZR ILE-DE-FRANCE;FR04328;Zone Rurale SE;Rurale régionale;NO2;Fond;Oui;mesures fixes;Moy. annuelle;7.0;6.81860546601269;µg-m3;98.0;100;98.0;R;1;48.3547;2.6453
2018/01/01 00:00:00;2018/12/31 23:59:59;AIRPARIF;FR11ZAG01;ZAG PARIS;FR04329;Bld peripherique Est;Urbaine;NO2;Trafic;Oui;mesures fixes;Moy. annuelle;67.0;67.35069834069142;µg-m3;96.0;100;96.0;R;1;48.838615;2.412781
2018/01/01 00:00:00;2018/12/31 23:59:59;ATMO NORMANDIE;FR28ZAR01;ZAR LE-HAVRE;FR05054;Le Havre Les Neiges;Urbaine;NO2;Industrielle;Oui;mesures fixes;Moy. annuelle;20.0;20.328241335044932;µg-m3;98.0;9;9.0;N;-1;49.481087;0.165289
2018/01/01 00:00:00;2018/12/31 23:59:59;ATMO NORMANDIE;FR28ZAR01;ZAR LE-HAVRE;FR05078;Le Havre Massillon;Urbaine;NO2;Fond;Oui;mesures fixes;Moy. annuelle;18.0;17.574833218311536;µg-m3;99.0;100;99.0;R;1;49.4983;0.142706
2018/01/01 00:00:00;2018/12/31 23:59:59;ATMO NORMANDIE;FR28ZAR01;ZAR LE-HAVRE;FR05083;Gonfreville l Orcher;Urbaine;NO2;Industrielle;Oui;mesures fixes;Moy. annuelle;13.0;12.799965529127908;µg-m3;99.0;100;99.0;R;1;49.50273;0.232486
2018/01/01 00:00:00;2018/12/31 23:59:59;ATMO NORMANDIE;FR28ZAR01;ZAR LE-HAVRE;FR05084;NDGravenchon Pasteur;Urbaine;NO2;Industrielle;Oui;mesures fixes;Moy. annuelle;11.0;11.051582205916095;µg-m3;100.0;100;100.0;R;1;49.493332;0.571853
2018/01/01 00:00:00;2018/12/31 23:59:59;ATMO NORMANDIE;FR28ZRE01;ZR NORMANDIE;FR05087;Maison Parc Brotonne;Rurale régionale;NO2;Fond;Oui;mesures fixes;Moy. annuelle;10.0;9.52255857109717;µg-m3;100.0;99;98.0;R;1;49.498295;0.758833
2018/01/01 00:00:00;2018/12/31 23:59:59;ATMO NORMANDIE;FR28ZAR01;ZAR LE-HAVRE;FR05089;Le Havre Lafaurie-montant;Urbaine;NO2;Trafic;Oui;mesures fixes;Moy. annuelle;35.0;34.88771808203363;µg-m3;99.0;100;99.0;R;1;49.500187;0.110903
2018/01/01 00:00:00;2018/12/31 23:59:59;ATMO NORMANDIE;FR28ZAR01;ZAR LE-HAVRE;FR05090;Le Havre ville-haute;Urbaine;NO2;Fond;Oui;mesures fixes;Moy. annuelle;12.0;12.242266949152555;µg-m3;97.0;100;97.0;R;1;49.514686;0.100645
2018/01/01 00:00:00;2018/12/31 23:59:59;ATMO NORMANDIE;FR28ZAR01;ZAR LE-HAVRE;FR05504;Le Havre Pasteur;Urbaine;NO2;Trafic;Oui;mesures indicatives;Moy. annuelle;37.0;36.9580569347898;µg-m3;100.0;23;23.0;A;1;49.5032;0.1301
2018/01/01 00:00:00;2018/12/31 23:59:59;ATMO HAUTS DE FRANCE;FR32ZAG01;ZAG BLDV;FR06001;Valenciennes Acacias;Urbaine;NO2;Fond;Oui;mesures fixes;Moy. annuelle;19.0;18.99800892550636;µg-m3;100.0;100;100.0;R;1;50.35853;3.50804
2018/01/01 00:00:00;2018/12/31 23:59:59;ATMO HAUTS DE FRANCE;FR32ZAG01;ZAG BLDV;FR06003;Douai Theuriet;Urbaine;NO2;Fond;Oui;mesures fixes;Moy. annuelle;16.0;16.027300613496976;µg-m3;98.0;99;97.0;R;1;50.37822;3.06586
2018/01/01 00:00:00;2018/12/31 23:59:59;ATMO HAUTS DE FRANCE;FR32ZAG01;ZAG BLDV;FR06006;Valenciennes Wallon;Urbaine;NO2;Trafic;Oui;mesures fixes;Moy. annuelle;32.0;32.38560434014642;µg-m3;91.0;100;90.0;R;1;50.36425;3.52273
2018/01/01 00:00:00;2018/12/31 23:59:59;ATMO HAUTS DE FRANCE;FR32ZRE01;ZR HAUTS-DE-FRANCE;FR06007;Maubeuge Joyeuse;Urbaine;NO2;Fond;Oui;mesures fixes;Moy. annuelle;14.0;14.238897618759818;µg-m3;98.0;97;94.0;R;1;50.27936;3.97691
2018/01/01 00:00:00;2018/12/31 23:59:59;ATMO HAUTS DE FRANCE;FR32ZAG01;ZAG BLDV;FR06011;Denain Villars;Périurbaine;NO2;Fond;Oui;mesures fixes;Moy. annuelle;17.0;16.667879430118887;µg-m3;97.0;100;97.0;R;1;50.32276;3.39593
2018/01/01 00:00:00;2018/12/31 23:59:59;ATMO HAUTS DE FRANCE;FR32ZRE01;ZR HAUTS-DE-FRANCE;FR06133;Cartignies;Rurale près des villes;NO2;Fond;Oui;mesures fixes;Moy. annuelle;8.0;8.00833543824201;µg-m3;92.0;98;90.0;R;1;50.09225;3.85003
2018/01/01 00:00:00;2018/12/31 23:59:59;ATMO HAUTS DE FRANCE;FR32ZAG01;ZAG BLDV;FR06134;Saint Amand;Périurbaine;NO2;Fond;Oui;mesures fixes;Moy. annuelle;13.0;12.502889743271721;µg-m3;92.0;100;92.0;R;1;50.45647;3.42794
2018/01/01 00:00:00;2018/12/31 23:59:59;ATMO AUVERGNE-RHÔNE-ALPES;FR84ZAG04;ZAG CLERMONT-FERRAND;FR07001;Royat;Périurbaine;NO2;Fond;Oui;mesures fixes;Moy. annuelle;3.0;2.6253164556962023;µg-m3;82.0;1;1.0;N;-1;45.764668;3.047194
2018/01/01 00:00:00;2018/12/31 23:59:59;ATMO AUVERGNE-RHÔNE-ALPES;FR84ZAG04;ZAG CLERMONT-FERRAND;FR07004;Montferrand;Urbaine;NO2;Fond;Oui;mesures fixes;Moy. annuelle;18.0;18.472463934050793;µg-m3;100.0;100;100.0;R;1;45.79728;3.113833
2018/01/01 00:00:00;2018/12/31 23:59:59;ATMO AUVERGNE-RHÔNE-ALPES;FR84ZAG04;ZAG CLERMONT-FERRAND;FR07009;Jardin Lecoq;Urbaine;NO2;Fond;Oui;mesures indicatives;Moy. annuelle;19.0;19.246894338757688;µg-m3;100.0;100;100.0;R;1;45.772167;3.0875
2018/01/01 00:00:00;2018/12/31 23:59:59;ATMO AUVERGNE-RHÔNE-ALPES;FR84ZRE01;ZR AUVERGNE-RHONE-ALPES;FR07022;Paray le Fresil;Rurale régionale;NO2;Fond;Oui;mesures fixes;Moy. annuelle;3.0;3.2123874393904424;µg-m3;99.0;100;99.0;R;1;46.652668;3.600667
2018/01/01 00:00:00;2018/12/31 23:59:59;ATMO AUVERGNE-RHÔNE-ALPES;FR84ZAG04;ZAG CLERMONT-FERRAND;FR07032;Riom;Urbaine;NO2;Fond;Oui;mesures indicatives;Moy. annuelle;14.0;13.952672453175028;µg-m3;100.0;100;100.0;R;1;45.894196;3.115056
2018/01/01 00:00:00;2018/12/31 23:59:59;ATMO AUVERGNE-RHÔNE-ALPES;FR84ZAG04;ZAG CLERMONT-FERRAND;FR07034;Clermont-Esplanade Gare;Urbaine;NO2;Trafic;Oui;mesures fixes;Moy. annuelle;35.0;35.193622857142934;µg-m3;100.0;100;100.0;R;1;45.775696;3.09625
2018/01/01 00:00:00;2018/12/31 23:59:59;ATMO AUVERGNE-RHÔNE-ALPES;FR84ZAG04;ZAG CLERMONT-FERRAND;FR07039;Chamalières Europe;Urbaine;NO2;Trafic;Oui;mesures indicatives;Moy. annuelle;30.0;30.15442705358165;µg-m3;100.0;100;100.0;R;1;45.774728;3.062978
2018/01/01 00:00:00;2018/12/31 23:59:59;ATMO AUVERGNE-RHÔNE-ALPES;FR84ZAR05;ZAR MOULINS;FR07048;Villeneuve sur Allier;Rurale près des villes;NO2;Trafic;Oui;mesures indicatives;Moy. annuelle;37.0;37.01331962531404;µg-m3;100.0;100;100.0;R;1;46.659048;3.249247
2018/01/01 00:00:00;2018/12/31 23:59:59;ATMO AUVERGNE-RHÔNE-ALPES;FR84ZAG04;ZAG CLERMONT-FERRAND;FR07051;Beaulieu;Périurbaine;NO2;Fond;Oui;mesures indicatives;Moy. annuelle;13.0;12.532175819104783;µg-m3;99.0;100;99.0;R;1;45.769;3.155
2018/01/01 00:00:00;2018/12/31 23:59:59;ATMO AUVERGNE-RHÔNE-ALPES;FR84ZRE01;ZR AUVERGNE-RHONE-ALPES;FR07052;Aurillac-Lagarde;Urbaine;NO2;Fond;Oui;mesures indicatives;Moy. annuelle;9.0;8.61949656750573;µg-m3;100.0;100;100.0;R;1;44.92008;2.441082
2018/01/01 00:00:00;2018/12/31 23:59:59;ATMO AUVERGNE-RHÔNE-ALPES;FR84ZAG04;ZAG CLERMONT-FERRAND;FR07053;Edouard Michelin;Urbaine;NO2;Trafic;Oui;mesures indicatives;Moy. annuelle;35.0;34.99695016687775;µg-m3;99.0;100;99.0;A;1;45.780434;3.111592
2018/01/01 00:00:00;2018/12/31 23:59:59;ATMO AUVERGNE-RHÔNE-ALPES;FR84ZRE01;ZR AUVERGNE-RHONE-ALPES;FR07054;Le Puy-Causans;Urbaine;NO2;Fond;Oui;mesures indicatives;Moy. annuelle;13.0;13.226386823744742;µg-m3;100.0;100;100.0;R;1;45.039001;3.887001
2018/01/01 00:00:00;2018/12/31 23:59:59;ATMO AUVERGNE-RHÔNE-ALPES;FR84ZAR05;ZAR MOULINS;FR07057;Moulins Centre;Urbaine;NO2;Fond;Oui;mesures fixes;Moy. annuelle;11.0;11.311222375690543;µg-m3;99.0;100;99.0;R;1;46.5619722;3.34063888888888
2018/01/01 00:00:00;2018/12/31 23:59:59;ATMO AUVERGNE-RHÔNE-ALPES;FR84ZRE01;ZR AUVERGNE-RHONE-ALPES;FR07058;Montluçon;Urbaine;NO2;Fond;Oui;mesures indicatives;Moy. annuelle;15.0;14.644877428307089;µg-m3;99.0;100;99.0;R;1;46.340723;2.593945
2018/01/01 00:00:00;2018/12/31 23:59:59;ATMO AUVERGNE-RHÔNE-ALPES;FR84ZRE01;ZR AUVERGNE-RHONE-ALPES;FR07059;Vichy;Urbaine;NO2;Fond;Oui;mesures indicatives;Moy. annuelle;14.0;13.58955727863932;µg-m3;99.0;92;91.0;R;1;46.130431;3.425694
2018/01/01 00:00:00;2018/12/31 23:59:59;ATMO AUVERGNE-RHÔNE-ALPES;FR84ZAG04;ZAG CLERMONT-FERRAND;FR07060;Royat Périurbaine;Périurbaine;NO2;Fond;Oui;mesures fixes;Moy. annuelle;10.0;9.722024720423791;µg-m3;100.0;97;97.0;R;1;45.764111;3.046111
2018/01/01 00:00:00;2018/12/31 23:59:59;ATMO OCCITANIE;FR76ZAG02;ZAG MONTPELLIER;FR08003;Montpellier Chaptal;Urbaine;NO2;Fond;Oui;mesures fixes;Moy. annuelle;26.0;26.31078010896024;µg-m3;98.0;100;98.0;R;1;43.611302;3.86626
2018/01/01 00:00:00;2018/12/31 23:59:59;ATMO OCCITANIE;FR76ZAG02;ZAG MONTPELLIER;FR08004;Montpellier St Denis;Urbaine;NO2;Trafic;Oui;mesures fixes;Moy. annuelle;42.0;42.168046928916475;µg-m3;99.0;100;99.0;R;1;43.6051;3.87464
2018/01/01 00:00:00;2018/12/31 23:59:59;ATMO OCCITANIE;FR76ZAG02;ZAG MONTPELLIER;FR08016;Montpellier Prés d'Arènes;Urbaine;NO2;Fond;Oui;mesures fixes;Moy. annuelle;18.0;18.485794589530297;µg-m3;98.0;99;97.0;R;1;43.5915;3.88681
2018/01/01 00:00:00;2018/12/31 23:59:59;ATMO OCCITANIE;FR76ZRE01;ZR OCCITANIE;FR08020;Lunel Viel;Périurbaine;NO2;Industrielle;Oui;mesures fixes;Moy. annuelle;12.0;11.754643023798423;µg-m3;99.0;99;98.0;R;1;43.6758;4.08838
2018/01/01 00:00:00;2018/12/31 23:59:59;ATMO OCCITANIE;FR76ZRE01;ZR OCCITANIE;FR08022;Agathois-piscénois;Périurbaine;NO2;Fond;Oui;mesures fixes;Moy. annuelle;7.0;6.988702832893693;µg-m3;100.0;100;100.0;R;1;43.2875;3.50484
2018/01/01 00:00:00;2018/12/31 23:59:59;ATMO OCCITANIE;FR76ZAG02;ZAG MONTPELLIER;FR08030;Pompignane;Urbaine;NO2;Trafic;Oui;mesures fixes;Moy. annuelle;27.0;27.477527033380248;µg-m3;98.0;99;97.0;R;1;43.6096;3.89878
2018/01/01 00:00:00;2018/12/31 23:59:59;ATMO OCCITANIE;FR93ZRE01;ZR PROVENCE-ALPES-COTE D’AZUR;FR08204;Gard Rhodanien1;Rurale près des villes;NO2;Fond;Oui;mesures fixes;Moy. annuelle;8.0;8.160777015237887;µg-m3;99.0;99;98.0;R;1;43.8292;4.64295
2018/01/01 00:00:00;2018/12/31 23:59:59;ATMO OCCITANIE;FR76ZAR02;ZAR NIMES;FR08614;Nimes Gauzy;Urbaine;NO2;Fond;Oui;mesures fixes;Moy. annuelle;16.0;16.003530501215455;µg-m3;99.0;99;99.0;R;1;43.8344;4.3744
2018/01/01 00:00:00;2018/12/31 23:59:59;ATMO OCCITANIE;FR76ZAR02;ZAR NIMES;FR08616;Nimes Planas;Urbaine;NO2;Trafic;Oui;mesures fixes;Moy. annuelle;33.0;32.74869134094306;µg-m3;99.0;100;99.0;R;1;43.8299;4.36199
2018/01/01 00:00:00;2018/12/31 23:59:59;ATMO OCCITANIE;FR76ZAR02;ZAR NIMES;FR08617;Nimes La Calmette;Périurbaine;NO2;Fond;Oui;mesures fixes;Moy. annuelle;8.0;8.269460861174766;µg-m3;96.0;99;95.0;R;1;43.9254;4.26581
2018/01/01 00:00:00;2018/12/31 23:59:59;ATMO OCCITANIE;FR76ZAR01;ZAR PERPIGNAN;FR08713;Perpignan Rigaud;Urbaine;NO2;Fond;Oui;mesures fixes;Moy. annuelle;13.0;13.101195219123513;µg-m3;98.0;99;97.0;R;1;42.6835;2.90351
2018/01/01 00:00:00;2018/12/31 23:59:59;ATMO OCCITANIE;FR76ZAR01;ZAR PERPIGNAN;FR08714;Perpignan Les Carmes;Urbaine;NO2;Fond;Oui;mesures fixes;Moy. annuelle;21.0;21.220905923344947;µg-m3;92.0;4;3.0;N;-1;42.6955;2.90053
2018/01/01 00:00:00;2018/12/31 23:59:59;ATMO NOUVELLE-AQUITAINE;FR75ZRE01;ZR NOUVELLE-AQUITAINE;FR09003;place de VERDUN;Urbaine;NO2;Fond;Oui;mesures fixes;Moy. annuelle;17.0;16.850969996385075;µg-m3;95.0;100;95.0;R;1;46.162647;-1.153684
2018/01/01 00:00:00;2018/12/31 23:59:59;ATMO NOUVELLE-AQUITAINE;FR75ZRE01;ZR NOUVELLE-AQUITAINE;FR09008;Aytré;Périurbaine;NO2;Fond;Oui;mesures fixes;Moy. annuelle;9.0;8.669530974491769;µg-m3;97.0;100;97.0;R;1;46.135134;-1.117086
2018/01/01 00:00:00;2018/12/31 23:59:59;ATMO NOUVELLE-AQUITAINE;FR75ZAR02;ZAR POITIERS;FR09015;Les Couronneries;Périurbaine;NO2;Fond;Oui;mesures fixes;Moy. annuelle;11.0;10.760146870264842;µg-m3;98.0;100;98.0;R;1;46.586958;0.358458
2018/01/01 00:00:00;2018/12/31 23:59:59;ATMO NOUVELLE-AQUITAINE;FR75ZRE01;ZR NOUVELLE-AQUITAINE;FR09016;La Couronne;Périurbaine;NO2;Fond;Oui;mesures fixes;Moy. annuelle;10.0;10.244737448180567;µg-m3;99.0;100;99.0;R;1;45.60882;0.099722
2018/01/01 00:00:00;2018/12/31 23:59:59;ATMO NOUVELLE-AQUITAINE;FR75ZRE01;ZR NOUVELLE-AQUITAINE;FR09017;COGNAC;Urbaine;NO2;Fond;Oui;mesures fixes;Moy. annuelle;12.0;12.380708364732444;µg-m3;91.0;100;91.0;R;1;45.694725;-0.323361
2018/01/01 00:00:00;2018/12/31 23:59:59;ATMO NOUVELLE-AQUITAINE;FR75ZAR03;ZAR NIORT;FR09019;Niort Ferry;Urbaine;NO2;Fond;Oui;mesures fixes;Moy. annuelle;12.0;12.374452724732528;µg-m3;98.0;100;98.0;R;1;46.329586;-0.458889
2018/01/01 00:00:00;2018/12/31 23:59:59;ATMO NOUVELLE-AQUITAINE;FR75ZRE01;ZR NOUVELLE-AQUITAINE;FR09103;Square Pablo Casals;Urbaine;NO2;Fond;Oui;mesures fixes;Moy. annuelle;15.0;15.322351864561881;µg-m3;100.0;100;100.0;R;1;45.647428;0.167162
2018/01/01 00:00:00;2018/12/31 23:59:59;ATMO NOUVELLE-AQUITAINE;FR75ZRE01;ZR NOUVELLE-AQUITAINE;FR09106;ANGOULEME-GAMBETTA;Urbaine;NO2;Trafic;Oui;mesures fixes;Moy. annuelle;31.0;31.034763702940744;µg-m3;100.0;100;100.0;R;1;45.651464;0.162391
2018/01/01 00:00:00;2018/12/31 23:59:59;ATMO NOUVELLE-AQUITAINE;FR75ZRE01;ZR NOUVELLE-AQUITAINE;FR09301;AIRVAULT 2;Périurbaine;NO2;Fond;Oui;mesures fixes;Moy. annuelle;8.0;7.984534746760912;µg-m3;97.0;100;97.0;R;1;46.824368;-0.135461
2018/01/01 00:00:00;2018/12/31 23:59:59;ATMO NOUVELLE-AQUITAINE;FR75ZRE01;ZR NOUVELLE-AQUITAINE;FR09302;Zoodyssée Chizé;Rurale régionale;NO2;Fond;Oui;mesures fixes;Moy. annuelle;3.0;2.5479461673493176;µg-m3;99.0;99;98.0;R;1;46.143234;-0.395913
2018/01/01 00:00:00;2018/12/31 23:59:59;ATMO NOUVELLE-AQUITAINE;FR75ZAR03;ZAR NIORT;FR09399;Niort Trafic 6;Urbaine;NO2;Trafic;Oui;mesures fixes;Moy. annuelle;28.0;28.404959661420424;µg-m3;90.0;96;86.0;R;1;46.321976;-0.4664312
2018/01/01 00:00:00;2018/12/31 23:59:59;ATMO NOUVELLE-AQUITAINE;FR75ZAR02;ZAR POITIERS;FR09402;Avenue de Libération;Urbaine;NO2;Trafic;Oui;mesures fixes;Moy. annuelle;33.0;33.3447218518968;µg-m3;100.0;95;94.0;R;1;46.570004;0.323575
2018/01/01 00:00:00;2018/12/31 23:59:59;ATMO NOUVELLE-AQUITAINE;FR75ZAR02;ZAR POITIERS;FR09403;Poitiers-Le Nain;Urbaine;NO2;Trafic;Oui;mesures fixes;Moy. annuelle;35.0;34.85380542686956;µg-m3;94.0;55;52.0;N;-1;46.591231;0.34039
2018/01/01 00:00:00;2018/12/31 23:59:59;ATMO NOUVELLE-AQUITAINE;FR75ZAR02;ZAR POITIERS;FR09404;Poitiers Centre  Augouard;Urbaine;NO2;Fond;Oui;mesures fixes;Moy. annuelle;20.0;19.505626363532016;µg-m3;99.0;100;99.0;R;1;46.583998;0.345582
2018/01/01 00:00:00;2018/12/31 23:59:59;ATMO HAUTS DE FRANCE;FR32ZAR01;ZAR COTE-D-OPALE;FR10012;Mardyck;Périurbaine;NO2;Industrielle;Oui;mesures fixes;Moy. annuelle;15.0;15.032051282051333;µg-m3;100.0;100;100.0;R;1;51.01943;2.25099
2018/01/01 00:00:00;2018/12/31 23:59:59;ATMO HAUTS DE FRANCE;FR32ZAR01;ZAR COTE-D-OPALE;FR10017;St Pol mer - cheminots;Urbaine;NO2;Fond;Oui;mesures fixes;Moy. annuelle;19.0;19.0068361916026;µg-m3;98.0;98;97.0;R;1;51.032761;2.332358
2018/01/01 00:00:00;2018/12/31 23:59:59;ATMO HAUTS DE FRANCE;FR32ZAR01;ZAR COTE-D-OPALE;FR10025;Sangatte;Périurbaine;NO2;Fond;Oui;mesures fixes;Moy. annuelle;13.0;13.343614568925767;µg-m3;99.0;100;99.0;R;1;50.94989;1.76917
2018/01/01 00:00:00;2018/12/31 23:59:59;ATMO HAUTS DE FRANCE;FR32ZAR01;ZAR COTE-D-OPALE;FR10026;Calais Parmentier;Urbaine;NO2;Fond;Oui;mesures fixes;Moy. annuelle;16.0;16.47647193848267;µg-m3;99.0;100;99.0;R;1;50.9578;1.89008
2018/01/01 00:00:00;2018/12/31 23:59:59;ATMO HAUTS DE FRANCE;FR32ZAR01;ZAR COTE-D-OPALE;FR10029;Cappelle la Grande;Périurbaine;NO2;Fond;Oui;mesures fixes;Moy. annuelle;16.0;15.516074002883188;µg-m3;96.0;99;95.0;R;1;50.99594;2.36627
2018/01/01 00:00:00;2018/12/31 23:59:59;ATMO HAUTS DE FRANCE;FR32ZAR01;ZAR COTE-D-OPALE;FR10032;Outreau;Périurbaine;NO2;Fond;Oui;mesures fixes;Moy. annuelle;11.0;10.710154135780678;µg-m3;97.0;100;97.0;R;1;50.69435;1.57657
2018/01/01 00:00:00;2018/12/31 23:59:59;ATMO HAUTS DE FRANCE;FR32ZAR01;ZAR COTE-D-OPALE;FR10034;Grande-synthe;Urbaine;NO2;Industrielle;Oui;mesures fixes;Moy. annuelle;21.0;20.67824735145106;µg-m3;99.0;100;99.0;R;1;51.02446;2.30215
2018/01/01 00:00:00;2018/12/31 23:59:59;ATMO HAUTS DE FRANCE;FR32ZAR01;ZAR COTE-D-OPALE;FR10041;St Omer Ribot;Urbaine;NO2;Fond;Oui;mesures fixes;Moy. annuelle;15.0;14.785885851538348;µg-m3;100.0;100;100.0;R;1;50.74823;2.25978
2018/01/01 00:00:00;2018/12/31 23:59:59;ATMO HAUTS DE FRANCE;FR32ZAG02;ZAG LILLE;FR11007;Lille Leeds;Urbaine;NO2;Trafic;Oui;mesures fixes;Moy. annuelle;31.0;31.209488188976227;µg-m3;90.0;97;87.0;R;1;50.6407944;3.074772
2018/01/01 00:00:00;2018/12/31 23:59:59;ATMO HAUTS DE FRANCE;FR32ZAG02;ZAG LILLE;FR11025;Lille Fives;Urbaine;NO2;Fond;Oui;mesures fixes;Moy. annuelle;29.0;28.825025278058515;µg-m3;91.0;99;90.0;R;1;50.62805;3.09031
2018/01/01 00:00:00;2018/12/31 23:59:59;ATMO HAUTS DE FRANCE;FR32ZAG02;ZAG LILLE;FR11026;Halluin stade;Périurbaine;NO2;Fond;Oui;mesures fixes;Moy. annuelle;18.0;17.76426807760137;µg-m3;98.0;99;97.0;R;1;50.775482;3.12568
2018/01/01 00:00:00;2018/12/31 23:59:59;ATMO HAUTS DE FRANCE;FR32ZAG02;ZAG LILLE;FR11034;Roubaix Serres;Urbaine;NO2;Trafic;Oui;mesures fixes;Moy. annuelle;28.0;28.44819845746526;µg-m3;99.0;100;99.0;R;1;50.706535;3.18066
2018/01/01 00:00:00;2018/12/31 23:59:59;ATMO OCCITANIE;FR76ZAG01;ZAG TOULOUSE;FR12004;ECOLE M.JACQUIER;Urbaine;NO2;Fond;Oui;mesures fixes;Moy. annuelle;18.0;17.58628750872296;µg-m3;98.0;100;98.0;R;1;43.575694;1.418064
2018/01/01 00:00:00;2018/12/31 23:59:59;ATMO OCCITANIE;FR76ZRE01;ZR OCCITANIE;FR12020;PEYRUSSE;Rurale nationale;NO2;Fond;Oui;mesures fixes;Moy. annuelle;1.0;1.1196760362077078;µg-m3;97.0;99;96.0;R;1;43.6287;0.179069
2018/01/01 00:00:00;2018/12/31 23:59:59;ATMO OCCITANIE;FR76ZAG01;ZAG TOULOUSE;FR12021;MAZADES;Urbaine;NO2;Fond;Oui;mesures fixes;Moy. annuelle;15.0;15.495205558772438;µg-m3;99.0;100;99.0;R;1;43.623606;1.438531
2018/01/01 00:00:00;2018/12/31 23:59:59;ATMO OCCITANIE;FR76ZRE01;ZR OCCITANIE;FR12026;ALBI DELMAS;Urbaine;NO2;Fond;Oui;mesures fixes;Moy. annuelle;14.0;13.73084232754569;µg-m3;98.0;99;97.0;R;1;43.927769;2.145897
2018/01/01 00:00:00;2018/12/31 23:59:59;ATMO OCCITANIE;FR76ZAG01;ZAG TOULOUSE;FR12030;BERTHELOT;Urbaine;NO2;Fond;Oui;mesures fixes;Moy. annuelle;17.0;16.603578505653353;µg-m3;98.0;100;98.0;R;1;43.587344;1.444003
2018/01/01 00:00:00;2018/12/31 23:59:59;ATMO OCCITANIE;FR76ZRE01;ZR OCCITANIE;FR12042;LOURDES LAPACCA;Urbaine;NO2;Fond;Oui;mesures fixes;Moy. annuelle;11.0;11.489339460080357;µg-m3;99.0;100;99.0;R;1;43.096247;-0.040497
2018/01/01 00:00:00;2018/12/31 23:59:59;ATMO OCCITANIE;FR76ZRE01;ZR OCCITANIE;FR12045;LOURDES PARADIS;Urbaine;NO2;Trafic;Oui;mesures fixes;Moy. annuelle;16.0;16.460199125789256;µg-m3;97.0;97;94.0;R;1;43.094992;-0.052394
2018/01/01 00:00:00;2018/12/31 23:59:59;ATMO OCCITANIE;FR76ZRE01;ZR OCCITANIE;FR12052;Lycée Dupuy à Tarbes;Urbaine;NO2;Fond;Oui;mesures fixes;Moy. annuelle;13.0;13.004067641681909;µg-m3;100.0;100;100.0;R;1;43.230297;0.062339
2018/01/01 00:00:00;2018/12/31 23:59:59;ATMO OCCITANIE;FR76ZRE01;ZR OCCITANIE;FR12053;Stade Travet CASTRES;Urbaine;NO2;Fond;Oui;mesures fixes;Moy. annuelle;6.0;6.3127152930297035;µg-m3;99.0;100;99.0;R;1;43.610497;2.23015
2018/01/01 00:00:00;2018/12/31 23:59:59;ATMO OCCITANIE;FR76ZAG01;ZAG TOULOUSE;FR12054;TRAFIC_TOULOUSE;Urbaine;NO2;Trafic;Oui;mesures fixes;Moy. annuelle;37.0;37.484591304347575;µg-m3;98.0;100;98.0;R;1;43.643944;1.468244
2018/01/01 00:00:00;2018/12/31 23:59:59;ATMO OCCITANIE;FR76ZAG01;ZAG TOULOUSE;FR12085;Port de l Embouchure;Urbaine;NO2;Trafic;Oui;mesures fixes;Moy. annuelle;47.0;46.66772596430625;µg-m3;99.0;100;99.0;R;1;43.610386;1.4152
2018/01/01 00:00:00;2018/12/31 23:59:59;ATMO GRAND EST;FR44ZAR01;ZAR REIMS;FR14004;MAIRIE REIMS;Urbaine;NO2;Fond;Oui;mesures fixes;Moy. annuelle;25.0;25.165623471882647;µg-m3;98.0;24;23.0;N;-1;49.25861;4.031111
2018/01/01 00:00:00;2018/12/31 23:59:59;ATMO GRAND EST;FR44ZRE01;ZR GRAND-EST;FR14008;REVIN;Rurale nationale;NO2;Fond;Oui;mesures fixes;Moy. annuelle;6.0;5.952030425714598;µg-m3;93.0;100;93.0;R;1;49.90778;4.63
2018/01/01 00:00:00;2018/12/31 23:59:59;ATMO GRAND EST;FR44ZAR01;ZAR REIMS;FR14010;BETHENY;Périurbaine;NO2;Fond;Oui;mesures fixes;Moy. annuelle;14.0;14.1613494637067;µg-m3;93.0;98;92.0;R;1;49.28222;4.051111
2018/01/01 00:00:00;2018/12/31 23:59:59;ATMO GRAND EST;FR44ZAR01;ZAR REIMS;FR14011;DOUMER;Urbaine;NO2;Trafic;Oui;mesures fixes;Moy. annuelle;44.0;43.570101174555134;µg-m3;98.0;100;98.0;R;1;49.250732;4.023064
2018/01/01 00:00:00;2018/12/31 23:59:59;ATMO GRAND EST;FR44ZAR01;ZAR REIMS;FR14012;Jean d Aulan;Urbaine;NO2;Fond;Oui;mesures fixes;Moy. annuelle;17.0;16.96016612072992;µg-m3;98.0;100;98.0;R;1;49.224167;4.020556
2018/01/01 00:00:00;2018/12/31 23:59:59;ATMO GRAND EST;FR44ZRE01;ZR GRAND-EST;FR14022;CHALONS;Urbaine;NO2;Fond;Oui;mesures fixes;Moy. annuelle;13.0;13.253453136011283;µg-m3;97.0;100;97.0;R;1;48.962223;4.36
2018/01/01 00:00:00;2018/12/31 23:59:59;ATMO GRAND EST;FR44ZRE01;ZR GRAND-EST;FR14028;Rempart Perrier;Urbaine;NO2;Trafic;Oui;mesures fixes;Moy. annuelle;27.0;27.101185543277985;µg-m3;99.0;100;99.0;R;1;49.0461;3.955911
2018/01/01 00:00:00;2018/12/31 23:59:59;ATMO GRAND EST;FR44ZRE01;ZR GRAND-EST;FR14029;Capitainerie;Périurbaine;NO2;Fond;Oui;mesures fixes;Moy. annuelle;11.0;10.803115155757805;µg-m3;98.0;100;98.0;R;1;48.7266;4.594781
2018/01/01 00:00:00;2018/12/31 23:59:59;ATMO GRAND EST;FR44ZRE01;ZR GRAND-EST;FR14031;LA TOUR;Urbaine;NO2;Fond;Oui;mesures fixes;Moy. annuelle;16.0;16.206862292051795;µg-m3;99.0;100;99.0;R;1;48.301666;4.076944
2018/01/01 00:00:00;2018/12/31 23:59:59;ATMO GRAND EST;FR44ZRE01;ZR GRAND-EST;FR14033;STE SAVINE;Urbaine;NO2;Fond;Oui;mesures fixes;Moy. annuelle;13.0;12.56192145862555;µg-m3;98.0;100;98.0;R;1;48.295002;4.050278
2018/01/01 00:00:00;2018/12/31 23:59:59;ATMO GRAND EST;FR44ZRE01;ZR GRAND-EST;FR14042;St DIZIER L. Michel;Urbaine;NO2;Fond;Oui;mesures fixes;Moy. annuelle;10.0;9.764954647190482;µg-m3;97.0;100;97.0;R;1;48.645836;4.966111
2018/01/01 00:00:00;2018/12/31 23:59:59;ATMO GRAND EST;FR44ZRE01;ZR GRAND-EST;FR14051;CHARLEVILLE;Urbaine;NO2;Fond;Oui;mesures fixes;Moy. annuelle;15.0;15.407936704166127;µg-m3;92.0;100;92.0;R;1;49.745277;4.719167
2018/01/01 00:00:00;2018/12/31 23:59:59;ATMO GRAND EST;FR44ZRE01;ZR GRAND-EST;FR14201;Bourgogne;Rurale près des villes;NO2;Fond;Oui;mesures fixes;Moy. annuelle;7.0;6.514150943396227;µg-m3;88.0;1;1.0;N;-1;49.349152;4.069595
2018/01/01 00:00:00;2018/12/31 23:59:59;ATMO AUVERGNE-RHÔNE-ALPES;FR84ZAG02;ZAG GRENOBLE;FR15013;Champ sur Drac;Périurbaine;NO2;Fond;Oui;mesures indicatives;Moy. annuelle;15.0;14.717641475857198;µg-m3;96.0;100;96.0;R;1;45.07954;5.728653
2018/01/01 00:00:00;2018/12/31 23:59:59;ATMO AUVERGNE-RHÔNE-ALPES;FR84ZAG02;ZAG GRENOBLE;FR15017;Fontaine Les Balmes;Urbaine;NO2;Fond;Oui;mesures indicatives;Moy. annuelle;31.0;30.720955882352943;µg-m3;96.0;13;12.0;N;-1;45.190492;5.687023
2018/01/01 00:00:00;2018/12/31 23:59:59;ATMO AUVERGNE-RHÔNE-ALPES;FR84ZAG02;ZAG GRENOBLE;FR15018;Voiron Urbain;Urbaine;NO2;Fond;Oui;mesures indicatives;Moy. annuelle;16.0;16.4839396019218;µg-m3;100.0;100;100.0;R;1;45.360176;5.589419
2018/01/01 00:00:00;2018/12/31 23:59:59;ATMO AUVERGNE-RHÔNE-ALPES;FR84ZAG02;ZAG GRENOBLE;FR15038;St Martin d'Heres;Urbaine;NO2;Fond;Oui;mesures indicatives;Moy. annuelle;24.0;23.569231659338154;µg-m3;99.0;100;99.0;R;1;45.1828;5.7531
2018/01/01 00:00:00;2018/12/31 23:59:59;ATMO AUVERGNE-RHÔNE-ALPES;FR84ZAG02;ZAG GRENOBLE;FR15039;Le Rondeau;Périurbaine;NO2;Trafic;Oui;mesures fixes;Moy. annuelle;40.0;40.239311055161515;µg-m3;100.0;100;100.0;R;1;45.158363;5.703764
2018/01/01 00:00:00;2018/12/31 23:59:59;ATMO AUVERGNE-RHÔNE-ALPES;FR84ZAG02;ZAG GRENOBLE;FR15043;Grenoble Les Frenes;Urbaine;NO2;Fond;Oui;mesures fixes;Moy. annuelle;20.0;19.728746899728364;µg-m3;97.0;99;97.0;R;1;45.1619;5.7356
2018/01/01 00:00:00;2018/12/31 23:59:59;ATMO AUVERGNE-RHÔNE-ALPES;FR84ZAG02;ZAG GRENOBLE;FR15045;Grenoble PeriurbSud;Périurbaine;NO2;Fond;Oui;mesures indicatives;Moy. annuelle;11.0;10.816986112705152;µg-m3;99.0;100;99.0;R;1;45.0578;5.6767
2018/01/01 00:00:00;2018/12/31 23:59:59;ATMO AUVERGNE-RHÔNE-ALPES;FR84ZAG02;ZAG GRENOBLE;FR15046;Grenoble Boulevards;Urbaine;NO2;Trafic;Oui;mesures indicatives;Moy. annuelle;43.0;43.45467684125332;µg-m3;99.0;100;99.0;R;1;45.18069;5.720625
2018/01/01 00:00:00;2018/12/31 23:59:59;ATMO AUVERGNE-RHÔNE-ALPES;FR84ZAG02;ZAG GRENOBLE;FR15048;Gresivaudan Periurb;Périurbaine;NO2;Fond;Oui;mesures indicatives;Moy. annuelle;15.0;14.770843345920555;µg-m3;100.0;100;100.0;R;1;45.2797;5.8822
2018/01/01 00:00:00;2018/12/31 23:59:59;ATMO GRAND EST;FR44ZAG01;ZAG STRASBOURG;FR16001;Strasbourg Ouest;Périurbaine;NO2;Fond;Oui;mesures indicatives;Moy. annuelle;19.0;19.081238681637043;µg-m3;95.0;100;95.0;R;1;48.608818;7.708917
2018/01/01 00:00:00;2018/12/31 23:59:59;ATMO GRAND EST;FR44ZRE01;ZR GRAND-EST;FR16017;Nord-Est Alsace;Rurale régionale;NO2;Fond;Oui;mesures fixes;Moy. annuelle;12.0;12.367837744134974;µg-m3;99.0;100;99.0;R;1;48.919357;8.158458
2018/01/01 00:00:00;2018/12/31 23:59:59;ATMO GRAND EST;FR44ZAG01;ZAG STRASBOURG;FR16029;STG Nord;Urbaine;NO2;Fond;Oui;mesures fixes;Moy. annuelle;20.0;20.143404312307496;µg-m3;85.0;100;85.0;R;1;48.610363;7.781631
2018/01/01 00:00:00;2018/12/31 23:59:59;ATMO GRAND EST;FR44ZRE01;ZR GRAND-EST;FR16031;Vosges du Nord;Rurale régionale;NO2;Fond;Oui;mesures fixes;Moy. annuelle;7.0;6.802962614624982;µg-m3;99.0;98;97.0;R;1;48.85731;7.314175
2018/01/01 00:00:00;2018/12/31 23:59:59;ATMO GRAND EST;FR44ZAG01;ZAG STRASBOURG;FR16034;STG Clemenceau;Urbaine;NO2;Trafic;Oui;mesures fixes;Moy. annuelle;45.0;44.50835629017444;µg-m3;99.0;100;99.0;R;1;48.59043;7.744983
2018/01/01 00:00:00;2018/12/31 23:59:59;ATMO GRAND EST;FR44ZAG01;ZAG STRASBOURG;FR16038;Strasbourg Est;Urbaine;NO2;Fond;Oui;mesures fixes;Moy. annuelle;25.0;24.654247391952335;µg-m3;100.0;100;100.0;R;1;48.570374;7.766331
2018/01/01 00:00:00;2018/12/31 23:59:59;ATMO GRAND EST;FR44ZAG01;ZAG STRASBOURG;FR16040;Strasbourg A35;Urbaine;NO2;Trafic;Oui;mesures fixes;Moy. annuelle;48.0;48.30939978690666;µg-m3;99.0;97;96.0;R;1;48.575985;7.727478
2018/01/01 00:00:00;2018/12/31 23:59:59;ATMO GRAND EST;FR44ZRE01;ZR GRAND-EST;FR16054;Colmar Centre;Urbaine;NO2;Fond;Oui;mesures fixes;Moy. annuelle;27.0;26.579942528735632;µg-m3;99.0;100;99.0;R;1;48.0744444;7.3505555
2018/01/01 00:00:00;2018/12/31 23:59:59;ATMO GRAND EST;FR44ZRE01;ZR GRAND-EST;FR16057;Mulhouse Nord;Urbaine;NO2;Fond;Oui;mesures fixes;Moy. annuelle;23.0;23.02970981114685;µg-m3;99.0;100;99.0;R;1;47.757435;7.347294
2018/01/01 00:00:00;2018/12/31 23:59:59;ATMO GRAND EST;FR44ZRE01;ZR GRAND-EST;FR16059;Chalampé;Rurale près des villes;NO2;Industrielle;Oui;mesures fixes;Moy. annuelle;22.0;21.95050366300363;µg-m3;100.0;100;100.0;R;1;47.820248;7.538683
2018/01/01 00:00:00;2018/12/31 23:59:59;ATMO GRAND EST;FR44ZRE01;ZR GRAND-EST;FR16060;C.C.3 Frontières;Périurbaine;NO2;Fond;Oui;mesures fixes;Moy. annuelle;19.0;19.279412780656223;µg-m3;99.0;100;99.0;R;1;47.594913;7.568175
2018/01/01 00:00:00;2018/12/31 23:59:59;ATMO GRAND EST;FR44ZRE01;ZR GRAND-EST;FR16066;Mulhouse Sud 2;Urbaine;NO2;Fond;Oui;mesures fixes;Moy. annuelle;16.0;16.113340961098388;µg-m3;100.0;100;100.0;R;1;47.737415;7.309075
2018/01/01 00:00:00;2018/12/31 23:59:59;ATMO GRAND EST;FR44ZRE01;ZR GRAND-EST;FR16069;Mulhouse-Briand;Urbaine;NO2;Trafic;Oui;mesures fixes;Moy. annuelle;35.0;34.55521310724108;µg-m3;100.0;100;100.0;R;1;47.747684;7.321364
2018/01/01 00:00:00;2018/12/31 23:59:59;ATMO HAUTS DE FRANCE;FR32ZAR03;ZAR CREIL;FR18019;Nogent sur Oise;Périurbaine;NO2;Fond;Oui;mesures fixes;Moy. annuelle;21.0;21.27840492249429;µg-m3;98.0;98;96.0;R;1;49.276386;2.482167
2018/01/01 00:00:00;2018/12/31 23:59:59;ATMO HAUTS DE FRANCE;FR32ZAR02;ZAR AMIENS;FR18035;Salouel;Périurbaine;NO2;Fond;Oui;mesures fixes;Moy. annuelle;13.0;13.151150705270934;µg-m3;92.0;100;92.0;R;1;49.86889;2.239806
2018/01/01 00:00:00;2018/12/31 23:59:59;ATMO HAUTS DE FRANCE;FR32ZRE01;ZR HAUTS-DE-FRANCE;FR18042;P. Roth St Quentin;Urbaine;NO2;Fond;Oui;mesures fixes;Moy. annuelle;19.0;19.48911252354043;µg-m3;97.0;100;97.0;R;1;49.851334;3.284
2018/01/01 00:00:00;2018/12/31 23:59:59;ATMO HAUTS DE FRANCE;FR32ZAR03;ZAR CREIL;FR18043;Faiencerie Creil;Urbaine;NO2;Fond;Oui;mesures fixes;Moy. annuelle;22.0;21.87736066328874;µg-m3;99.0;100;99.0;R;1;49.259552;2.474397
2018/01/01 00:00:00;2018/12/31 23:59:59;ATMO HAUTS DE FRANCE;FR32ZAR02;ZAR AMIENS;FR18053;St Pierre Amiens;Urbaine;NO2;Fond;Oui;mesures fixes;Moy. annuelle;20.0;19.527142650672108;µg-m3;79.0;100;79.0;N;-1;49.901667;2.304597
2018/01/01 00:00:00;2018/12/31 23:59:59;ATMO HAUTS DE FRANCE;FR32ZRE01;ZR HAUTS-DE-FRANCE;FR18089;Trafic Beauvais 1;Urbaine;NO2;Trafic;Oui;mesures fixes;Moy. annuelle;28.0;27.928862772208912;µg-m3;99.0;100;99.0;R;1;49.435932;2.084292
2018/01/01 00:00:00;2018/12/31 23:59:59;AIR BREIZH;FR53ZAG01;ZAG RENNES;FR19002;Rennes Laennec;Urbaine;NO2;Trafic;Oui;mesures fixes;Moy. annuelle;21.0;21.02778496647455;µg-m3;97.0;100;97.0;R;1;48.10861;-1.66586
2018/01/01 00:00:00;2018/12/31 23:59:59;AIR BREIZH;FR53ZAG01;ZAG RENNES;FR19007;HALLES;Urbaine;NO2;Trafic;Oui;mesures fixes;Moy. annuelle;32.0;32.05020585544369;µg-m3;100.0;100;100.0;R;1;48.10751;-1.67984
2018/01/01 00:00:00;2018/12/31 23:59:59;AIR BREIZH;FR53ZRE01;ZR BRETAGNE;FR19008;Serv Tech Guipry;Rurale nationale;NO2;Fond;Oui;mesures fixes;Moy. annuelle;4.0;4.276057740169236;µg-m3;92.0;100;92.0;R;1;47.83192;-1.83633
2018/01/01 00:00:00;2018/12/31 23:59:59;AIR BREIZH;FR53ZAG01;ZAG RENNES;FR19010;Rennes St-Yves;Urbaine;NO2;Fond;Oui;mesures fixes;Moy. annuelle;17.0;16.561725689237498;µg-m3;99.0;100;99.0;R;1;48.11078;-1.68293
2018/01/01 00:00:00;2018/12/31 23:59:59;AIR BREIZH;FR53ZAR01;ZAR BREST;FR19012;Brest Mace;Urbaine;NO2;Fond;Oui;mesures fixes;Moy. annuelle;13.0;12.981722017221085;µg-m3;97.0;96;93.0;R;1;48.38618;-4.4866
2018/01/01 00:00:00;2018/12/31 23:59:59;AIR BREIZH;FR53ZAR01;ZAR BREST;FR19014;Brest Desmoulins;Urbaine;NO2;Trafic;Oui;mesures fixes;Moy. annuelle;27.0;27.009931344697033;µg-m3;99.0;97;96.0;R;1;48.39746;-4.48871
2018/01/01 00:00:00;2018/12/31 23:59:59;AIR BREIZH;FR53ZRE01;ZR BRETAGNE;FR19021;Lorient CTM;Urbaine;NO2;Fond;Oui;mesures fixes;Moy. annuelle;12.0;12.100522041763284;µg-m3;98.0;100;98.0;R;1;47.75171;-3.37501
2018/01/01 00:00:00;2018/12/31 23:59:59;AIR BREIZH;FR53ZRE01;ZR BRETAGNE;FR19032;Lorient B. Bissonnet;Urbaine;NO2;Fond;Oui;mesures fixes;Moy. annuelle;10.0;9.806578792515026;µg-m3;97.0;100;97.0;R;1;47.7425;-3.39501
2018/01/01 00:00:00;2018/12/31 23:59:59;AIR BREIZH;FR53ZRE01;ZR BRETAGNE;FR19033;Vannes UTA;Urbaine;NO2;Fond;Oui;mesures fixes;Moy. annuelle;12.0;12.267844734635228;µg-m3;96.0;100;95.0;R;1;47.64892;-2.76399
2018/01/01 00:00:00;2018/12/31 23:59:59;AIR BREIZH;FR53ZRE01;ZR BRETAGNE;FR19053;QUIMPER ZOLA;Urbaine;NO2;Fond;Oui;mesures fixes;Moy. annuelle;10.0;9.818263298801101;µg-m3;98.0;100;98.0;R;1;47.986606;-4.097658
2018/01/01 00:00:00;2018/12/31 23:59:59;AIR BREIZH;FR53ZRE01;ZR BRETAGNE;FR19061;Saint Brieuc Balzac;Urbaine;NO2;Fond;Oui;mesures fixes;Moy. annuelle;11.0;10.964534010855782;µg-m3;99.0;100;99.0;R;1;48.51351;-2.74953
2018/01/01 00:00:00;2018/12/31 23:59:59;AIR BREIZH;FR53ZRE01;ZR BRETAGNE;FR19081;StMalo Courtoisville;Urbaine;NO2;Fond;Oui;mesures fixes;Moy. annuelle;7.0;7.002670775551924;µg-m3;94.0;47;44.0;N;-1;48.65473;-1.99614
2018/01/01 00:00:00;2018/12/31 23:59:59;AIR BREIZH;FR53ZRE01;ZR BRETAGNE;FR19082;StMalo Rocabey;Périurbaine;NO2;Fond;Oui;mesures fixes;Moy. annuelle;9.0;8.623144213946526;µg-m3;87.0;53;46.0;N;-1;48.65306;-2.00268
2018/01/01 00:00:00;2018/12/31 23:59:59;ATMO AUVERGNE-RHÔNE-ALPES;FR84ZAG01;ZAG LYON;FR20013;A7 SUD LYONNAIS;Périurbaine;NO2;Trafic;Oui;mesures fixes;Moy. annuelle;61.0;60.56747892366341;µg-m3;99.0;100;99.0;R;1;45.720024;4.818156
2018/01/01 00:00:00;2018/12/31 23:59:59;ATMO AUVERGNE-RHÔNE-ALPES;FR84ZAG01;ZAG LYON;FR20017;GERLAND;Urbaine;NO2;Fond;Oui;mesures indicatives;Moy. annuelle;30.0;29.58252783700549;µg-m3;97.0;99;96.0;R;1;45.73529;4.829794
2018/01/01 00:00:00;2018/12/31 23:59:59;ATMO AUVERGNE-RHÔNE-ALPES;FR84ZAG01;ZAG LYON;FR20019;GRANDCLEMENT;Urbaine;NO2;Trafic;Oui;mesures indicatives;Moy. annuelle;34.0;34.35276159403405;µg-m3;98.0;100;98.0;R;1;45.75836;4.886214
2018/01/01 00:00:00;2018/12/31 23:59:59;ATMO AUVERGNE-RHÔNE-ALPES;FR84ZAG01;ZAG LYON;FR20029;FEYZIN STADE;Périurbaine;NO2;Industrielle;Oui;mesures indicatives;Moy. annuelle;31.0;30.60314009661837;µg-m3;96.0;5;5.0;N;-1;45.6639;4.8459
2018/01/01 00:00:00;2018/12/31 23:59:59;ATMO AUVERGNE-RHÔNE-ALPES;FR84ZAG01;ZAG LYON;FR20031;ST FONS CENTRE;Périurbaine;NO2;Industrielle;Oui;mesures indicatives;Moy. annuelle;23.0;23.183415435139636;µg-m3;99.0;99;97.0;R;1;45.7078;4.8644
2018/01/01 00:00:00;2018/12/31 23:59:59;ATMO AUVERGNE-RHÔNE-ALPES;FR84ZAG01;ZAG LYON;FR20037;TERNAY;Périurbaine;NO2;Fond;Oui;mesures indicatives;Moy. annuelle;19.0;18.892214392976726;µg-m3;99.0;100;99.0;R;1;45.6019;4.8022
2018/01/01 00:00:00;2018/12/31 23:59:59;ATMO AUVERGNE-RHÔNE-ALPES;FR84ZAG01;ZAG LYON;FR20045;GENAS;Périurbaine;NO2;Fond;Oui;mesures indicatives;Moy. annuelle;24.0;23.784519506419144;µg-m3;94.0;97;92.0;R;1;45.7317;4.9803
2018/01/01 00:00:00;2018/12/31 23:59:59;ATMO AUVERGNE-RHÔNE-ALPES;FR84ZAG01;ZAG LYON;FR20046;VAULX EN VELIN;Urbaine;NO2;Fond;Oui;mesures indicatives;Moy. annuelle;19.0;18.657596544715428;µg-m3;90.0;100;90.0;R;1;45.7789;4.9247
2018/01/01 00:00:00;2018/12/31 23:59:59;ATMO AUVERGNE-RHÔNE-ALPES;FR84ZAG01;ZAG LYON;FR20047;COTIERE AIN;Périurbaine;NO2;Fond;Oui;mesures indicatives;Moy. annuelle;10.0;9.611044727918639;µg-m3;71.0;100;71.0;R;1;45.823223;4.953958
2018/01/01 00:00:00;2018/12/31 23:59:59;ATMO AUVERGNE-RHÔNE-ALPES;FR84ZAG01;ZAG LYON;FR20048;SAINT EXUPERY;Périurbaine;NO2;Fond;Oui;mesures fixes;Moy. annuelle;12.0;12.189835294117655;µg-m3;98.0;99;97.0;R;1;45.7533;5.0722
2018/01/01 00:00:00;2018/12/31 23:59:59;ATMO AUVERGNE-RHÔNE-ALPES;FR84ZAG01;ZAG LYON;FR20062;LYON Centre;Urbaine;NO2;Fond;Oui;mesures fixes;Moy. annuelle;25.0;24.793985050221988;µg-m3;98.0;99;98.0;R;1;45.757732;4.854214
2018/01/01 00:00:00;2018/12/31 23:59:59;ATMO AUVERGNE-RHÔNE-ALPES;FR84ZAG01;ZAG LYON;FR20069;Lyon Périphérique;Urbaine;NO2;Trafic;Oui;mesures fixes;Moy. annuelle;66.0;66.296382488479;µg-m3;99.0;100;99.0;R;1;45.77482;4.898572
2018/01/01 00:00:00;2018/12/31 23:59:59;ATMO AUVERGNE-RHÔNE-ALPES;FR84ZAG01;ZAG LYON;FR20070;LYON TRAFIC JAURES;Urbaine;NO2;Trafic;Oui;mesures fixes;Moy. annuelle;35.0;34.68568768619673;µg-m3;92.0;100;92.0;R;1;45.7496944;4.84438888888888
2018/01/01 00:00:00;2018/12/31 23:59:59;ATMO AUVERGNE-RHÔNE-ALPES;FR84ZAG01;ZAG LYON;FR20077;Villefranche Centre ;Urbaine;NO2;Fond;Oui;mesures fixes;Moy. annuelle;20.0;19.842099152444014;µg-m3;98.0;100;98.0;R;1;45.990112;4.715566
2018/01/01 00:00:00;2018/12/31 23:59:59;ATMO NORMANDIE;FR28ZAR02;ZAR CAEN;FR21001;Caen Chemin-Vert;Urbaine;NO2;Fond;Oui;mesures fixes;Moy. annuelle;15.0;15.02210824195261;µg-m3;97.0;100;97.0;R;1;49.19222;-0.391111
2018/01/01 00:00:00;2018/12/31 23:59:59;ATMO NORMANDIE;FR28ZAR02;ZAR CAEN;FR21016;Caen Vaucelles;Urbaine;NO2;Trafic;Oui;mesures fixes;Moy. annuelle;25.0;25.19755621844881;µg-m3;99.0;100;99.0;R;1;49.17508;-0.353563
2018/01/01 00:00:00;2018/12/31 23:59:59;ATMO NORMANDIE;FR28ZAR02;ZAR CAEN;FR21019;IFS Caen sud;Urbaine;NO2;Fond;Oui;mesures fixes;Moy. annuelle;15.0;15.262929411764766;µg-m3;97.0;100;97.0;R;1;49.15167;-0.352778
2018/01/01 00:00:00;2018/12/31 23:59:59;ATMO NORMANDIE;FR28ZRE01;ZR NORMANDIE;FR21021;Lisieux;Urbaine;NO2;Fond;Oui;mesures fixes;Moy. annuelle;12.0;11.831652152878533;µg-m3;95.0;99;94.0;R;1;49.147224;0.227222
2018/01/01 00:00:00;2018/12/31 23:59:59;ATMO NORMANDIE;FR28ZRE01;ZR NORMANDIE;FR21031;Alençon Météo-France;Périurbaine;NO2;Fond;Oui;mesures fixes;Moy. annuelle;9.0;9.113614856872465;µg-m3;97.0;100;97.0;R;1;48.445553;0.110833
2018/01/01 00:00:00;2018/12/31 23:59:59;ATMO NORMANDIE;FR28ZRE01;ZR NORMANDIE;FR21035;cherbourg doumer;Urbaine;NO2;Fond;Oui;mesures fixes;Moy. annuelle;15.0;14.585642317380314;µg-m3;100.0;100;100.0;R;1;49.63639;-1.626667
2018/01/01 00:00:00;2018/12/31 23:59:59;ATMO NORMANDIE;FR28ZRE01;ZR NORMANDIE;FR21038;Cherbourg Hotel de Ville;Urbaine;NO2;Fond;Oui;mesures fixes;Moy. annuelle;14.0;13.678976034858373;µg-m3;99.0;32;31.0;N;-1;49.64225;-1.624361
2018/01/01 00:00:00;2018/12/31 23:59:59;ATMO NORMANDIE;FR28ZRE01;ZR NORMANDIE;FR21040;Saint-Lô Eglise;Urbaine;NO2;Fond;Oui;mesures fixes;Moy. annuelle;11.0;11.370458116765397;µg-m3;94.0;100;94.0;R;1;49.11639;-1.084722
2018/01/01 00:00:00;2018/12/31 23:59:59;ATMO NORMANDIE;FR28ZRE01;ZR NORMANDIE;FR21060;Moult proximité;Urbaine;NO2;Trafic;Oui;mesures fixes;Moy. annuelle;13.0;13.22554608106529;µg-m3;98.0;100;98.0;R;1;49.117196;-0.169666
2018/01/01 00:00:00;2018/12/31 23:59:59;ATMO NORMANDIE;FR28ZAR02;ZAR CAEN;FR21500;Caen délivrande;Urbaine;NO2;Trafic;Oui;mesures indicatives;Moy. annuelle;40.0;39.84834004706592;µg-m3;100.0;23;23.0;A;1;49.1888806;-0.35946
2018/01/01 00:00:00;2018/12/31 23:59:59;ATMO NORMANDIE;FR28ZAR02;ZAR CAEN;FR21501;Mondeville Calmette;Urbaine;NO2;Trafic;Oui;mesures indicatives;Moy. annuelle;29.0;29.27056624961242;µg-m3;100.0;23;23.0;A;1;49.1783028;-0.31905
2018/01/01 00:00:00;2018/12/31 23:59:59;ATMO GRAND EST;FR44ZRE01;ZR GRAND-EST;FR22009;Ecole de Carling(9);Périurbaine;NO2;Industrielle;Oui;mesures indicatives;Moy. annuelle;15.0;15.34097584083373;µg-m3;97.0;99;96.0;R;1;49.165726;6.716886
2018/01/01 00:00:00;2018/12/31 23:59:59;ATMO GRAND EST;FR44ZRE01;ZR GRAND-EST;FR22011;L Hôpital - Mairie;Périurbaine;NO2;Industrielle;Oui;mesures indicatives;Moy. annuelle;14.0;14.192232787260826;µg-m3;100.0;100;100.0;R;1;49.158413;6.731664
2018/01/01 00:00:00;2018/12/31 23:59:59;ATMO GRAND EST;FR44ZRE01;ZR GRAND-EST;FR22014;Spicheren(14);Périurbaine;NO2;Fond;Oui;mesures indicatives;Moy. annuelle;12.0;11.947189722413432;µg-m3;100.0;100;100.0;R;1;49.19539;6.957444
2018/01/01 00:00:00;2018/12/31 23:59:59;ATMO GRAND EST;FR44ZRE01;ZR GRAND-EST;FR22019;SCHOENECK (19);Périurbaine;NO2;Fond;Oui;mesures fixes;Moy. annuelle;14.0;13.561349408764189;µg-m3;99.0;100;98.0;R;1;49.220364;6.925833
2018/01/01 00:00:00;2018/12/31 23:59:59;ATMO GRAND EST;FR44ZRE01;ZR GRAND-EST;FR22054;Station de FORBACH;Urbaine;NO2;Fond;Oui;mesures fixes;Moy. annuelle;20.0;19.743233082706773;µg-m3;98.0;99;97.0;R;1;49.18742;6.910867
2018/01/01 00:00:00;2018/12/31 23:59:59;AIR PAYS DE LA LOIRE;FR52ZAG01;ZAG NANTES-SAINT-NAZAIRE;FR23001;AMPERE;Périurbaine;NO2;Industrielle;Oui;mesures fixes;Moy. annuelle;9.0;8.596553324823029;µg-m3;99.0;99;98.0;R;1;47.324097;-2.081567
2018/01/01 00:00:00;2018/12/31 23:59:59;AIR PAYS DE LA LOIRE;FR52ZAG01;ZAG NANTES-SAINT-NAZAIRE;FR23003;LA MEGRETAIS;Périurbaine;NO2;Industrielle;Oui;mesures fixes;Moy. annuelle;8.0;8.248109965635718;µg-m3;99.0;97;96.0;R;1;47.322706;-2.039244
2018/01/01 00:00:00;2018/12/31 23:59:59;AIR PAYS DE LA LOIRE;FR52ZRE01;ZR PAYS-DE-LA-LOIRE;FR23068;FROSSAY;Rurale près des villes;NO2;Industrielle;Oui;mesures fixes;Moy. annuelle;5.0;5.342405790441188;µg-m3;99.0;100;99.0;R;1;47.24747;-1.936619
2018/01/01 00:00:00;2018/12/31 23:59:59;AIR PAYS DE LA LOIRE;FR52ZAG01;ZAG NANTES-SAINT-NAZAIRE;FR23070;S ETIENNE DE MONTLUC;Périurbaine;NO2;Industrielle;Oui;mesures fixes;Moy. annuelle;6.0;5.736214792763898;µg-m3;100.0;100;100.0;R;1;47.28318;-1.783164
2018/01/01 00:00:00;2018/12/31 23:59:59;AIR PAYS DE LA LOIRE;FR52ZAG01;ZAG NANTES-SAINT-NAZAIRE;FR23075;JULES VERNE;Périurbaine;NO2;Industrielle;Oui;mesures fixes;Moy. annuelle;12.0;11.571553108511093;µg-m3;100.0;100;100.0;R;1;47.315727;-2.190764
2018/01/01 00:00:00;2018/12/31 23:59:59;AIR PAYS DE LA LOIRE;FR52ZRE01;ZR PAYS-DE-LA-LOIRE;FR23078;SAINT EXUPERY;Urbaine;NO2;Fond;Oui;mesures fixes;Moy. annuelle;10.0;9.927448054184357;µg-m3;99.0;100;99.0;R;1;47.054443;-0.886111
2018/01/01 00:00:00;2018/12/31 23:59:59;AIR PAYS DE LA LOIRE;FR52ZAG01;ZAG NANTES-SAINT-NAZAIRE;FR23107;LA CHAUVINIERE;Urbaine;NO2;Fond;Oui;mesures fixes;Moy. annuelle;14.0;14.183512832263974;µg-m3;100.0;100;100.0;R;1;47.252777;-1.573333
2018/01/01 00:00:00;2018/12/31 23:59:59;AIR PAYS DE LA LOIRE;FR52ZAG01;ZAG NANTES-SAINT-NAZAIRE;FR23110;LEON BLUM;Urbaine;NO2;Fond;Oui;mesures fixes;Moy. annuelle;9.0;9.44114326040927;µg-m3;99.0;98;97.0;R;1;47.26412;-2.249858
2018/01/01 00:00:00;2018/12/31 23:59:59;AIR PAYS DE LA LOIRE;FR52ZAR01;ZAR ANGERS-LOIRE;FR23120;BEAUX ARTS;Urbaine;NO2;Fond;Oui;mesures fixes;Moy. annuelle;14.0;14.08204511622579;µg-m3;100.0;100;100.0;R;1;47.468513;-0.556053
2018/01/01 00:00:00;2018/12/31 23:59:59;AIR PAYS DE LA LOIRE;FR52ZAR03;ZAR LAVAL;FR23123;MAZAGRAN;Urbaine;NO2;Fond;Oui;mesures fixes;Moy. annuelle;13.0;12.822498567335257;µg-m3;100.0;100;100.0;R;1;48.06943;-0.767692
2018/01/01 00:00:00;2018/12/31 23:59:59;AIR PAYS DE LA LOIRE;FR52ZRE01;ZR PAYS-DE-LA-LOIRE;FR23124;LA TARDIERE;Rurale nationale;NO2;Fond;Oui;mesures fixes;Moy. annuelle;5.0;4.6308152924919606;µg-m3;99.0;100;99.0;R;1;46.656685;-0.743681
2018/01/01 00:00:00;2018/12/31 23:59:59;AIR PAYS DE LA LOIRE;FR52ZAG01;ZAG NANTES-SAINT-NAZAIRE;FR23140;VICTOR HUGO;Urbaine;NO2;Trafic;Oui;mesures fixes;Moy. annuelle;32.0;31.63070757957409;µg-m3;100.0;100;100.0;R;1;47.204356;-1.552914
2018/01/01 00:00:00;2018/12/31 23:59:59;AIR PAYS DE LA LOIRE;FR52ZAR01;ZAR ANGERS-LOIRE;FR23150;APPENTIS;Urbaine;NO2;Fond;Oui;mesures fixes;Moy. annuelle;10.0;9.66435541269659;µg-m3;99.0;100;99.0;R;1;47.44739;-0.550067
2018/01/01 00:00:00;2018/12/31 23:59:59;AIR PAYS DE LA LOIRE;FR52ZRE01;ZR PAYS-DE-LA-LOIRE;FR23152;DELACROIX;Urbaine;NO2;Fond;Oui;mesures fixes;Moy. annuelle;9.0;9.434623754438194;µg-m3;100.0;100;100.0;R;1;46.6607;-1.436831
2018/01/01 00:00:00;2018/12/31 23:59:59;AIR PAYS DE LA LOIRE;FR52ZAG01;ZAG NANTES-SAINT-NAZAIRE;FR23153;BONNE FONTAINE;Périurbaine;NO2;Industrielle;Oui;mesures fixes;Moy. annuelle;8.0;7.588562578868877;µg-m3;100.0;100;100.0;R;1;47.331524;-2.151625
2018/01/01 00:00:00;2018/12/31 23:59:59;AIR PAYS DE LA LOIRE;FR52ZAR02;ZAR LE-MANS;FR23174;GUEDOU;Urbaine;NO2;Fond;Oui;mesures fixes;Moy. annuelle;13.0;12.586659038901582;µg-m3;100.0;100;100.0;R;1;47.98892;0.195983
2018/01/01 00:00:00;2018/12/31 23:59:59;AIR PAYS DE LA LOIRE;FR52ZRE01;ZR PAYS-DE-LA-LOIRE;FR23177;SAINT-DENIS D'ANJOU;Rurale régionale;NO2;Fond;Oui;mesures fixes;Moy. annuelle;5.0;5.02302040816329;µg-m3;99.0;99;98.0;R;1;47.78773;-0.444044
2018/01/01 00:00:00;2018/12/31 23:59:59;AIR PAYS DE LA LOIRE;FR52ZAG01;ZAG NANTES-SAINT-NAZAIRE;FR23181;PARC PAYSAGER;Urbaine;NO2;Fond;Oui;mesures fixes;Moy. annuelle;9.0;9.132726211325178;µg-m3;99.0;99;98.0;R;1;47.273056;-2.223056
2018/01/01 00:00:00;2018/12/31 23:59:59;AIR PAYS DE LA LOIRE;FR52ZAR02;ZAR LE-MANS;FR23182;SOURCES;Urbaine;NO2;Fond;Oui;mesures fixes;Moy. annuelle;11.0;11.465010304556872;µg-m3;100.0;100;100.0;R;1;47.971066;0.221422
2018/01/01 00:00:00;2018/12/31 23:59:59;AIR PAYS DE LA LOIRE;FR52ZAG01;ZAG NANTES-SAINT-NAZAIRE;FR23188;CIM BOUTEILLERIE;Urbaine;NO2;Fond;Oui;mesures fixes;Moy. annuelle;13.0;13.119170865781049;µg-m3;100.0;100;100.0;R;1;47.2225;-1.5375
2018/01/01 00:00:00;2018/12/31 23:59:59;AIR PAYS DE LA LOIRE;FR52ZAG01;ZAG NANTES-SAINT-NAZAIRE;FR23238;LEVOYER;Urbaine;NO2;Industrielle;Oui;mesures fixes;Moy. annuelle;15.0;15.430717514779248;µg-m3;99.0;99;98.0;R;1;47.1941472;-1.581677778
2018/01/01 00:00:00;2018/12/31 23:59:59;AIR PAYS DE LA LOIRE;FR52ZAG01;ZAG NANTES-SAINT-NAZAIRE;FR23239;LES COUETS;Urbaine;NO2;Industrielle;Oui;mesures fixes;Moy. annuelle;18.0;17.539505747126494;µg-m3;99.0;100;99.0;R;1;47.1859194;-1.59149722222222
2018/01/01 00:00:00;2018/12/31 23:59:59;ATMO SUD;FR93ZAG02;ZAG NICE;FR24007;ANTIBES JEAN MOULIN;Périurbaine;NO2;Fond;Oui;mesures fixes;Moy. annuelle;27.0;27.364871593290292;µg-m3;89.0;98;87.0;R;1;43.598803;7.093153
2018/01/01 00:00:00;2018/12/31 23:59:59;ATMO SUD;FR93ZAG02;ZAG NICE;FR24009;CANNES BROUSSAILLES;Urbaine;NO2;Fond;Oui;mesures fixes;Moy. annuelle;20.0;20.102311939268017;µg-m3;99.0;100;99.0;R;1;43.558389;7.005919
2018/01/01 00:00:00;2018/12/31 23:59:59;ATMO SUD;FR93ZRE01;ZR PROVENCE-ALPES-COTE D’AZUR;FR24018;MANOSQUE;Urbaine;NO2;Fond;Oui;mesures fixes;Moy. annuelle;10.0;10.057889908257724;µg-m3;100.0;100;100.0;R;1;43.835784;5.786131
2018/01/01 00:00:00;2018/12/31 23:59:59;ATMO SUD;FR93ZAG02;ZAG NICE;FR24023;CONTES 2;Périurbaine;NO2;Fond;Oui;mesures fixes;Moy. annuelle;18.0;17.64469499169264;µg-m3;96.0;100;96.0;R;1;43.788748;7.332382
2018/01/01 00:00:00;2018/12/31 23:59:59;ATMO SUD;FR93ZRE01;ZR PROVENCE-ALPES-COTE D’AZUR;FR24033;GAP COMMANDERIE;Urbaine;NO2;Fond;Oui;mesures fixes;Moy. annuelle;19.0;19.133701397862268;µg-m3;97.0;100;97.0;R;1;44.555193;6.073015
2018/01/01 00:00:00;2018/12/31 23:59:59;ATMO SUD;FR93ZAG02;ZAG NICE;FR24035;NICE PROMENADE;Urbaine;NO2;Trafic;Oui;mesures fixes;Moy. annuelle;41.0;40.631735632180465;µg-m3;99.0;100;99.0;R;1;43.689291;7.242074
2018/01/01 00:00:00;2018/12/31 23:59:59;ATMO SUD;FR93ZAG02;ZAG NICE;FR24036;NICE ARSON;Urbaine;NO2;Fond;Oui;mesures fixes;Moy. annuelle;32.0;31.86299314906461;µg-m3;97.0;99;97.0;R;1;43.702075;7.286256
2018/01/01 00:00:00;2018/12/31 23:59:59;ATMO SUD;FR93ZRE01;ZR PROVENCE-ALPES-COTE D’AZUR;FR24038;GAP JEAN JAURES;Urbaine;NO2;Trafic;Oui;mesures fixes;Moy. annuelle;27.0;27.405229517720308;µg-m3;98.0;100;98.0;R;1;44.548647;6.067237
2018/01/01 00:00:00;2018/12/31 23:59:59;ATMO NORMANDIE;FR28ZAG01;ZAG ROUEN;FR25036;Espace du Palais;Urbaine;NO2;Fond;Oui;mesures fixes;Moy. annuelle;22.0;22.21185372005044;µg-m3;100.0;100;100.0;R;1;49.442358;1.093789
2018/01/01 00:00:00;2018/12/31 23:59:59;ATMO NORMANDIE;FR28ZRE01;ZR NORMANDIE;FR25039;Evreux Centre;Urbaine;NO2;Fond;Oui;mesures fixes;Moy. annuelle;14.0;14.447592165898675;µg-m3;99.0;100;99.0;R;1;49.02134;1.148319
2018/01/01 00:00:00;2018/12/31 23:59:59;ATMO NORMANDIE;FR28ZAG01;ZAG ROUEN;FR25043;Centre Hospitalier;Urbaine;NO2;Fond;Oui;mesures fixes;Moy. annuelle;15.0;15.203351237739373;µg-m3;98.0;100;98.0;R;1;49.4005;1.099042
2018/01/01 00:00:00;2018/12/31 23:59:59;ATMO NORMANDIE;FR28ZAG01;ZAG ROUEN;FR25048;Petit Quevilly;Urbaine;NO2;Fond;Oui;mesures fixes;Moy. annuelle;22.0;21.69598794063078;µg-m3;99.0;100;98.0;R;1;49.42815;1.058025
2018/01/01 00:00:00;2018/12/31 23:59:59;ATMO NORMANDIE;FR28ZAR03;ZAR DIEPPE;FR25051;Dieppe prox-auto;Urbaine;NO2;Trafic;Oui;mesures fixes;Moy. annuelle;35.0;34.91218382614895;µg-m3;96.0;100;96.0;R;1;49.918007;1.073972
2018/01/01 00:00:00;2018/12/31 23:59:59;ATMO NORMANDIE;FR28ZAG01;ZAG ROUEN;FR25053;Rouen Proxi Quai de Paris;Urbaine;NO2;Trafic;Oui;mesures fixes;Moy. annuelle;41.0;40.56114718614701;µg-m3;98.0;96;95.0;R;1;49.436699;1.098838
2018/01/01 00:00:00;2018/12/31 23:59:59;ATMO NORMANDIE;FR28ZAG01;ZAG ROUEN;FR25054;Petit-Quevilly Sud 3;Urbaine;NO2;Trafic;Oui;mesures fixes;Moy. annuelle;53.0;53.24629179682966;µg-m3;99.0;99;99.0;R;1;49.4341639;1.067052778
2018/01/01 00:00:00;2018/12/31 23:59:59;ATMO BOURGOGNE-FRANCHE-COMTE;FR27ZAR02;ZAR DIJON;FR26002;Station TARNIER;Urbaine;NO2;Fond;Oui;mesures fixes;Moy. annuelle;15.0;14.590669745958378;µg-m3;96.0;51;49.0;N;-1;47.304666;5.02008
2018/01/01 00:00:00;2018/12/31 23:59:59;ATMO BOURGOGNE-FRANCHE-COMTE;FR27ZAR02;ZAR DIJON;FR26005;Dijon Péjoces;Périurbaine;NO2;Fond;Oui;mesures fixes;Moy. annuelle;14.0;13.520014287415147;µg-m3;96.0;100;96.0;R;1;47.307368;5.065881
2018/01/01 00:00:00;2018/12/31 23:59:59;ATMO BOURGOGNE-FRANCHE-COMTE;FR27ZAR02;ZAR DIJON;FR26010;Daix;Périurbaine;NO2;Fond;Oui;mesures fixes;Moy. annuelle;13.0;12.768869241507655;µg-m3;96.0;51;49.0;N;-1;47.3456;5.002377
2018/01/01 00:00:00;2018/12/31 23:59:59;ATMO BOURGOGNE-FRANCHE-COMTE;FR27ZRE01;ZR BOURGOGNE-FRANCHE-COMTE;FR26012;Morvan;Rurale nationale;NO2;Fond;Oui;mesures fixes;Moy. annuelle;3.0;2.890296912114022;µg-m3;97.0;99;96.0;R;1;47.274762;4.099476
2018/01/01 00:00:00;2018/12/31 23:59:59;ATMO BOURGOGNE-FRANCHE-COMTE;FR27ZAR02;ZAR DIJON;FR26014;Dijon Trémouille;Urbaine;NO2;Fond;Oui;mesures fixes;Moy. annuelle;21.0;20.533265355086264;µg-m3;95.0;100;95.0;R;1;47.325744;5.041056
2018/01/01 00:00:00;2018/12/31 23:59:59;ATMO BOURGOGNE-FRANCHE-COMTE;FR27ZRE01;ZR BOURGOGNE-FRANCHE-COMTE;FR26016;Sens;Urbaine;NO2;Fond;Oui;mesures fixes;Moy. annuelle;13.0;12.536431362970188;µg-m3;96.0;98;93.0;R;1;48.200436;3.2773
2018/01/01 00:00:00;2018/12/31 23:59:59;ATMO BOURGOGNE-FRANCHE-COMTE;FR27ZRE01;ZR BOURGOGNE-FRANCHE-COMTE;FR26017;Nevers;Urbaine;NO2;Fond;Oui;mesures fixes;Moy. annuelle;9.0;9.224013463324066;µg-m3;98.0;100;98.0;R;1;46.996828;3.171092
2018/01/01 00:00:00;2018/12/31 23:59:59;ATMO BOURGOGNE-FRANCHE-COMTE;FR27ZRE01;ZR BOURGOGNE-FRANCHE-COMTE;FR26019;Auxerre;Urbaine;NO2;Fond;Oui;mesures fixes;Moy. annuelle;11.0;11.074591693887127;µg-m3;93.0;53;49.0;N;-1;47.800575;3.576189
2018/01/01 00:00:00;2018/12/31 23:59:59;ATMO BOURGOGNE-FRANCHE-COMTE;FR27ZRE01;ZR BOURGOGNE-FRANCHE-COMTE;FR26035;Nuits-Saint-Georges;Périurbaine;NO2;Trafic;Oui;mesures fixes;Moy. annuelle;19.0;19.030310457516304;µg-m3;98.0;100;98.0;R;1;47.137231;4.950573
2018/01/01 00:00:00;2018/12/31 23:59:59;ATMO BOURGOGNE-FRANCHE-COMTE;FR27ZAR02;ZAR DIJON;FR26043;Dijon-Transvaal;Urbaine;NO2;Trafic;Oui;mesures fixes;Moy. annuelle;20.0;20.48120774073217;µg-m3;98.0;100;98.0;R;1;47.315459;5.040202
2018/01/01 00:00:00;2018/12/31 23:59:59;ATMO AUVERGNE-RHÔNE-ALPES;FR84ZAR02;ZAR VALLEE-DU-RHONE;FR27002;ROUSSILLON;Urbaine;NO2;Fond;Oui;mesures indicatives;Moy. annuelle;22.0;22.499755022047985;µg-m3;93.0;100;93.0;R;1;45.36782;4.805147
2018/01/01 00:00:00;2018/12/31 23:59:59;ATMO AUVERGNE-RHÔNE-ALPES;FR84ZRE01;ZR AUVERGNE-RHONE-ALPES;FR27003;ROCHES DE CONDRIEU;Périurbaine;NO2;Fond;Oui;mesures indicatives;Moy. annuelle;15.0;14.582133333333337;µg-m3;100.0;99;98.0;R;1;45.454517;4.766528
2018/01/01 00:00:00;2018/12/31 23:59:59;ATMO AUVERGNE-RHÔNE-ALPES;FR84ZAR02;ZAR VALLEE-DU-RHONE;FR27005;Sablons;Périurbaine;NO2;Fond;Oui;mesures indicatives;Moy. annuelle;13.0;12.980807041609504;µg-m3;100.0;100;100.0;R;1;45.321845;4.770702
2018/01/01 00:00:00;2018/12/31 23:59:59;ATMO AUVERGNE-RHÔNE-ALPES;FR84ZAG01;ZAG LYON;FR27007;Bourgoin-Jallieu;Urbaine;NO2;Fond;Oui;mesures indicatives;Moy. annuelle;13.0;13.412512588116767;µg-m3;88.0;52;45.0;R;1;45.60822;5.270872
2018/01/01 00:00:00;2018/12/31 23:59:59;ATMO AUVERGNE-RHÔNE-ALPES;FR84ZAR02;ZAR VALLEE-DU-RHONE;FR27008;A7 Nord-Isère;Périurbaine;NO2;Trafic;Oui;mesures indicatives;Moy. annuelle;40.0;40.28899780878812;µg-m3;99.0;100;99.0;R;1;45.35327;4.804847
2018/01/01 00:00:00;2018/12/31 23:59:59;ATMO AUVERGNE-RHÔNE-ALPES;FR84ZRE01;ZR AUVERGNE-RHONE-ALPES;FR27010;Plateau de Bonnevaux;Rurale près des villes;NO2;Fond;Oui;mesures fixes;Moy. annuelle;5.0;5.0768201892744615;µg-m3;95.0;95;90.0;R;1;45.4609;5.181081
2018/01/01 00:00:00;2018/12/31 23:59:59;ATMO HAUTS DE FRANCE;FR32ZAG01;ZAG BLDV;FR28010;Harnes Serres;Périurbaine;NO2;Fond;Oui;mesures fixes;Moy. annuelle;17.0;17.152070293692876;µg-m3;95.0;99;95.0;R;1;50.44914;2.9
2018/01/01 00:00:00;2018/12/31 23:59:59;ATMO HAUTS DE FRANCE;FR32ZAR04;ZAR ARRAS;FR28022;St-Laurent-Blangy;Périurbaine;NO2;Fond;Oui;mesures fixes;Moy. annuelle;15.0;15.33570725707258;µg-m3;94.0;99;93.0;R;1;50.30886;2.807369
2018/01/01 00:00:00;2018/12/31 23:59:59;ATMO HAUTS DE FRANCE;FR32ZAG01;ZAG BLDV;FR28028;Bethune Stade;Urbaine;NO2;Fond;Oui;mesures fixes;Moy. annuelle;17.0;16.555508279668818;µg-m3;99.0;100;99.0;R;1;50.535385;2.635692
2018/01/01 00:00:00;2018/12/31 23:59:59;ATMO HAUTS DE FRANCE;FR32ZAG01;ZAG BLDV;FR28033;Noeux-les-Mines;Périurbaine;NO2;Fond;Oui;mesures fixes;Moy. annuelle;12.0;12.287675804529169;µg-m3;96.0;100;96.0;R;1;50.48972;2.66642
2018/01/01 00:00:00;2018/12/31 23:59:59;ATMO AUVERGNE-RHÔNE-ALPES;FR84ZRE01;ZR AUVERGNE-RHONE-ALPES;FR29423;ROANNE;Urbaine;NO2;Fond;Oui;mesures indicatives;Moy. annuelle;18.0;17.88066323613487;µg-m3;100.0;100;100.0;R;1;46.04111;4.074656
2018/01/01 00:00:00;2018/12/31 23:59:59;ATMO AUVERGNE-RHÔNE-ALPES;FR84ZAG03;ZAG SAINT-ETIENNE;FR29424;SAINT ETIENNE SUD;Urbaine;NO2;Fond;Oui;mesures fixes;Moy. annuelle;18.0;17.705292033375265;µg-m3;100.0;100;100.0;R;1;45.42009;4.395422
2018/01/01 00:00:00;2018/12/31 23:59:59;ATMO AUVERGNE-RHÔNE-ALPES;FR84ZAG03;ZAG SAINT-ETIENNE;FR29426;SAINT-CHAMOND;Urbaine;NO2;Fond;Oui;mesures indicatives;Moy. annuelle;25.0;24.797847985348007;µg-m3;100.0;100;100.0;R;1;45.475327;4.515003
2018/01/01 00:00:00;2018/12/31 23:59:59;ATMO AUVERGNE-RHÔNE-ALPES;FR84ZAG03;ZAG SAINT-ETIENNE;FR29428;ST ETIENNE ROND PT;Urbaine;NO2;Trafic;Oui;mesures indicatives;Moy. annuelle;31.0;31.275132978723402;µg-m3;98.0;9;9.0;N;-1;45.422079;4.412831
2018/01/01 00:00:00;2018/12/31 23:59:59;ATMO AUVERGNE-RHÔNE-ALPES;FR84ZAG03;ZAG SAINT-ETIENNE;FR29429;RIVE DE GIER;Périurbaine;NO2;Trafic;Oui;mesures fixes;Moy. annuelle;35.0;35.05307551067255;µg-m3;99.0;100;99.0;R;1;45.533424;4.623939
2018/01/01 00:00:00;2018/12/31 23:59:59;ATMO AUVERGNE-RHÔNE-ALPES;FR84ZAG03;ZAG SAINT-ETIENNE;FR29439;LA TALAUDIERE;Périurbaine;NO2;Fond;Oui;mesures fixes;Moy. annuelle;14.0;14.093334857665461;µg-m3;100.0;100;100.0;R;1;45.481777;4.429667
2018/01/01 00:00:00;2018/12/31 23:59:59;ATMO AUVERGNE-RHÔNE-ALPES;FR84ZAG03;ZAG SAINT-ETIENNE;FR29441;ST ETIENNE BD URBAIN ;Urbaine;NO2;Trafic;Oui;mesures indicatives;Moy. annuelle;32.0;31.676478775226084;µg-m3;98.0;100;98.0;R;1;45.4479806;4.388763889
2018/01/01 00:00:00;2018/12/31 23:59:59;ATMO GRAND EST;FR44ZAG03;ZAG NANCY;FR30016;Hotel Districal;Urbaine;NO2;Trafic;Oui;mesures fixes;Moy. annuelle;27.0;26.525981009037892;µg-m3;100.0;100;100.0;R;1;48.685856;6.175111
2018/01/01 00:00:00;2018/12/31 23:59:59;ATMO GRAND EST;FR44ZRE01;ZR GRAND-EST;FR30018;Remiremont;Urbaine;NO2;Trafic;Oui;mesures fixes;Moy. annuelle;18.0;17.779743471227135;µg-m3;99.0;100;99.0;R;1;48.024605;6.585836
2018/01/01 00:00:00;2018/12/31 23:59:59;ATMO GRAND EST;FR44ZRE01;ZR GRAND-EST;FR30019;Epinal;Urbaine;NO2;Fond;Oui;mesures fixes;Moy. annuelle;13.0;13.298275251033676;µg-m3;97.0;100;97.0;R;1;48.1726528;6.45281666
2018/01/01 00:00:00;2018/12/31 23:59:59;ATMO GRAND EST;FR44ZRE01;ZR GRAND-EST;FR30020;Bar Le Duc;Urbaine;NO2;Fond;Oui;mesures fixes;Moy. annuelle;16.0;16.20872598353155;µg-m3;100.0;100;100.0;R;1;48.77586;5.162789
2018/01/01 00:00:00;2018/12/31 23:59:59;ATMO GRAND EST;FR44ZAG03;ZAG NANCY;FR30021;Fléville;Périurbaine;NO2;Fond;Oui;mesures indicatives;Moy. annuelle;19.0;18.747934678194113;µg-m3;95.0;100;95.0;R;1;48.621502;6.194922
2018/01/01 00:00:00;2018/12/31 23:59:59;ATMO GRAND EST;FR44ZAG03;ZAG NANCY;FR30023;St-Nicolas;Rurale près des villes;NO2;Industrielle;Oui;mesures indicatives;Moy. annuelle;14.0;13.630421686746967;µg-m3;99.0;100;99.0;R;1;48.63334;6.304828
2018/01/01 00:00:00;2018/12/31 23:59:59;ATMO GRAND EST;FR44ZRE01;ZR GRAND-EST;FR30026;Luneville;Urbaine;NO2;Trafic;Oui;mesures fixes;Moy. annuelle;25.0;24.72070212269651;µg-m3;98.0;100;98.0;R;1;48.584824;6.4839
2018/01/01 00:00:00;2018/12/31 23:59:59;ATMO GRAND EST;FR44ZRE01;ZR GRAND-EST;FR30028;Schlucht;Rurale près des villes;NO2;Fond;Oui;mesures indicatives;Moy. annuelle;3.0;3.4681345269779844;µg-m3;98.0;97;94.0;R;1;48.051117;7.011114
2018/01/01 00:00:00;2018/12/31 23:59:59;ATMO GRAND EST;FR44ZRE01;ZR GRAND-EST;FR30032;Heming;Rurale près des villes;NO2;Industrielle;Oui;mesures fixes;Moy. annuelle;12.0;11.685415171093572;µg-m3;95.0;100;95.0;R;1;48.694725;6.965275
2018/01/01 00:00:00;2018/12/31 23:59:59;ATMO GRAND EST;FR44ZRE01;ZR GRAND-EST;FR30033;Jonville en Woevre;Rurale régionale;NO2;Fond;Oui;mesures fixes;Moy. annuelle;7.0;7.288263546798008;µg-m3;93.0;100;93.0;R;1;49.06583;5.785556
2018/01/01 00:00:00;2018/12/31 23:59:59;ATMO GRAND EST;FR44ZAG03;ZAG NANCY;FR30034;Nancy-Charles III;Urbaine;NO2;Fond;Oui;mesures fixes;Moy. annuelle;24.0;24.085732882061986;µg-m3;88.0;100;88.0;R;1;48.68817;6.190431
2018/01/01 00:00:00;2018/12/31 23:59:59;ATMO GRAND EST;FR44ZAG03;ZAG NANCY;FR30036;Nancy-Libération;Urbaine;NO2;Trafic;Oui;mesures fixes;Moy. annuelle;24.0;23.51366286438527;µg-m3;93.0;97;90.0;R;1;48.69708;6.154194
2018/01/01 00:00:00;2018/12/31 23:59:59;ATMO GRAND EST;FR44ZAG03;ZAG NANCY;FR30037;Nancy-Brabois 2;Périurbaine;NO2;Fond;Oui;mesures indicatives;Moy. annuelle;15.0;14.554986750180724;µg-m3;95.0;99;95.0;R;1;48.656944;6.136022
2018/01/01 00:00:00;2018/12/31 23:59:59;ATMO NOUVELLE-AQUITAINE;FR75ZAG01;ZAG BORDEAUX;FR31001;GRAND PARC;Urbaine;NO2;Fond;Oui;mesures fixes;Moy. annuelle;15.0;15.117394988500195;µg-m3;94.0;100;94.0;R;1;44.86121;-0.58037
2018/01/01 00:00:00;2018/12/31 23:59:59;ATMO NOUVELLE-AQUITAINE;FR75ZAG01;ZAG BORDEAUX;FR31002;TALENCE;Urbaine;NO2;Fond;Oui;mesures fixes;Moy. annuelle;16.0;15.801617375231096;µg-m3;99.0;100;99.0;R;1;44.800462;-0.589398
2018/01/01 00:00:00;2018/12/31 23:59:59;ATMO NOUVELLE-AQUITAINE;FR75ZAG01;ZAG BORDEAUX;FR31003;BORDEAUX-BASTIDE;Urbaine;NO2;Trafic;Oui;mesures fixes;Moy. annuelle;19.0;19.435994010596545;µg-m3;99.0;100;99.0;R;1;44.849647;-0.544995
2018/01/01 00:00:00;2018/12/31 23:59:59;ATMO NOUVELLE-AQUITAINE;FR75ZAG01;ZAG BORDEAUX;FR31005;BORDEAUX-GAMBETTA;Urbaine;NO2;Trafic;Oui;mesures fixes;Moy. annuelle;30.0;29.95132575757576;µg-m3;96.0;6;6.0;N;-1;44.84139;-0.579722
2018/01/01 00:00:00;2018/12/31 23:59:59;ATMO NOUVELLE-AQUITAINE;FR75ZAG01;ZAG BORDEAUX;FR31006;MERIGNAC;Urbaine;NO2;Trafic;Oui;mesures fixes;Moy. annuelle;24.0;23.967244589248224;µg-m3;98.0;100;98.0;R;1;44.841373;-0.651068
2018/01/01 00:00:00;2018/12/31 23:59:59;ATMO NOUVELLE-AQUITAINE;FR75ZAG01;ZAG BORDEAUX;FR31007;BASSENS;Urbaine;NO2;Fond;Oui;mesures fixes;Moy. annuelle;14.0;13.916334661354611;µg-m3;98.0;99;97.0;R;1;44.900296;-0.515835
2018/01/01 00:00:00;2018/12/31 23:59:59;ATMO NOUVELLE-AQUITAINE;FR75ZRE01;ZR NOUVELLE-AQUITAINE;FR31008;LE TEMPLE;Rurale régionale;NO2;Fond;Oui;mesures fixes;Moy. annuelle;3.0;2.6097693032015177;µg-m3;98.0;99;97.0;R;1;44.86581;-0.94
2018/01/01 00:00:00;2018/12/31 23:59:59;ATMO NOUVELLE-AQUITAINE;FR75ZAG01;ZAG BORDEAUX;FR31010;AMBES;Périurbaine;NO2;Industrielle;Oui;mesures fixes;Moy. annuelle;7.0;6.805241795198857;µg-m3;98.0;100;98.0;R;1;45.014777;-0.533942
2018/01/01 00:00:00;2018/12/31 23:59:59;ATMO NOUVELLE-AQUITAINE;FR75ZRE01;ZR NOUVELLE-AQUITAINE;FR31013;BILLERE;Urbaine;NO2;Fond;Oui;mesures fixes;Moy. annuelle;13.0;12.71699394837588;µg-m3;92.0;100;92.0;R;1;43.310797;-0.391543
2018/01/01 00:00:00;2018/12/31 23:59:59;ATMO NOUVELLE-AQUITAINE;FR75ZRE01;ZR NOUVELLE-AQUITAINE;FR31014;HAMEAU;Urbaine;NO2;Fond;Oui;mesures fixes;Moy. annuelle;12.0;12.023212616822455;µg-m3;98.0;100;98.0;R;1;43.307777;-0.322778
2018/01/01 00:00:00;2018/12/31 23:59:59;ATMO NOUVELLE-AQUITAINE;FR75ZRE01;ZR NOUVELLE-AQUITAINE;FR31016;SAINT-CROUTS;Urbaine;NO2;Fond;Oui;mesures fixes;Moy. annuelle;15.0;15.184839008570735;µg-m3;99.0;100;99.0;R;1;43.47982;-1.489157
2018/01/01 00:00:00;2018/12/31 23:59:59;ATMO NOUVELLE-AQUITAINE;FR75ZRE01;ZR NOUVELLE-AQUITAINE;FR31017;ANGLET;Urbaine;NO2;Trafic;Oui;mesures fixes;Moy. annuelle;27.0;26.63428966905765;µg-m3;91.0;100;91.0;R;1;43.494041;-1.528753
2018/01/01 00:00:00;2018/12/31 23:59:59;ATMO NOUVELLE-AQUITAINE;FR75ZRE01;ZR NOUVELLE-AQUITAINE;FR31020;LACQ;Rurale près des villes;NO2;Industrielle;Oui;mesures fixes;Moy. annuelle;10.0;10.255017626322683;µg-m3;97.0;100;97.0;R;1;43.41123;-0.617728
2018/01/01 00:00:00;2018/12/31 23:59:59;ATMO NOUVELLE-AQUITAINE;FR75ZRE01;ZR NOUVELLE-AQUITAINE;FR31021;LABASTIDE CEZERACQ;Rurale régionale;NO2;Fond;Oui;mesures fixes;Moy. annuelle;8.0;8.282739600092295;µg-m3;99.0;100;99.0;R;1;43.376279;-0.538206
2018/01/01 00:00:00;2018/12/31 23:59:59;ATMO NOUVELLE-AQUITAINE;FR75ZRE01;ZR NOUVELLE-AQUITAINE;FR31024;MOURENX;Rurale près des villes;NO2;Industrielle;Oui;mesures fixes;Moy. annuelle;4.0;4.462998215347829;µg-m3;96.0;100;96.0;R;1;43.377194;-0.610278
2018/01/01 00:00:00;2018/12/31 23:59:59;ATMO NOUVELLE-AQUITAINE;FR75ZRE01;ZR NOUVELLE-AQUITAINE;FR31032;AGEN;Urbaine;NO2;Fond;Oui;mesures fixes;Moy. annuelle;12.0;12.130833123584182;µg-m3;94.0;97;91.0;R;1;44.192223;0.623889
2018/01/01 00:00:00;2018/12/31 23:59:59;ATMO NOUVELLE-AQUITAINE;FR75ZRE01;ZR NOUVELLE-AQUITAINE;FR31033;PERIGUEUX;Urbaine;NO2;Fond;Oui;mesures fixes;Moy. annuelle;11.0;10.953364055299689;µg-m3;99.0;100;99.0;R;1;45.189825;0.727184
2018/01/01 00:00:00;2018/12/31 23:59:59;ATMO NOUVELLE-AQUITAINE;FR75ZRE01;ZR NOUVELLE-AQUITAINE;FR31036;DAX;Urbaine;NO2;Fond;Oui;mesures fixes;Moy. annuelle;11.0;11.473860911270965;µg-m3;97.0;99;95.0;R;1;43.704643;-1.038557
2018/01/01 00:00:00;2018/12/31 23:59:59;ATMO NOUVELLE-AQUITAINE;FR75ZRE01;ZR NOUVELLE-AQUITAINE;FR31039;PAU TOURASSE;Urbaine;NO2;Trafic;Oui;mesures fixes;Moy. annuelle;26.0;26.28564676043355;µg-m3;99.0;100;99.0;R;1;43.311091;-0.352116
2018/01/01 00:00:00;2018/12/31 23:59:59;ATMO NOUVELLE-AQUITAINE;FR75ZRE01;ZR NOUVELLE-AQUITAINE;FR31040;MARMANDE;Périurbaine;NO2;Trafic;Oui;mesures fixes;Moy. annuelle;17.0;16.50544946436888;µg-m3;98.0;100;98.0;R;1;44.508782;0.142695
2018/01/01 00:00:00;2018/12/31 23:59:59;ATMO NOUVELLE-AQUITAINE;FR75ZRE01;ZR NOUVELLE-AQUITAINE;FR31041;MONT DE MARSAN;Urbaine;NO2;Trafic;Oui;mesures fixes;Moy. annuelle;17.0;16.5407826388087;µg-m3;99.0;100;99.0;R;1;43.8961;-0.491403
2018/01/01 00:00:00;2018/12/31 23:59:59;ATMO NOUVELLE-AQUITAINE;FR75ZRE01;ZR NOUVELLE-AQUITAINE;FR31043;Biarritz-hippodrome;Périurbaine;NO2;Fond;Oui;mesures fixes;Moy. annuelle;13.0;13.23473461719119;µg-m3;97.0;100;97.0;R;1;43.470237;-1.553876
2018/01/01 00:00:00;2018/12/31 23:59:59;ATMO NOUVELLE-AQUITAINE;FR75ZAG01;ZAG BORDEAUX;FR31045;Bordeaux_GAUTIER;Urbaine;NO2;Trafic;Oui;mesures fixes;Moy. annuelle;40.0;39.89426802705481;µg-m3;100.0;100;100.0;R;1;44.833825;-0.598525
2018/01/01 00:00:00;2018/12/31 23:59:59;ATMO BOURGOGNE-FRANCHE-COMTE;FR27ZAR04;ZAR CHALON;FR32001;Chalon Centre Ville;Urbaine;NO2;Trafic;Oui;mesures fixes;Moy. annuelle;25.0;24.711040241215432;µg-m3;98.0;100;98.0;R;1;46.782311;4.847322
2018/01/01 00:00:00;2018/12/31 23:59:59;ATMO BOURGOGNE-FRANCHE-COMTE;FR27ZAR04;ZAR CHALON;FR32002;Champforgueil;Périurbaine;NO2;Fond;Oui;mesures fixes;Moy. annuelle;17.0;17.24425487465179;µg-m3;98.0;100;98.0;R;1;46.821056;4.835083
2018/01/01 00:00:00;2018/12/31 23:59:59;ATMO BOURGOGNE-FRANCHE-COMTE;FR27ZRE01;ZR BOURGOGNE-FRANCHE-COMTE;FR32005;Montceau-les-Mines;Urbaine;NO2;Fond;Oui;mesures fixes;Moy. annuelle;15.0;14.58487102021843;µg-m3;98.0;100;98.0;R;1;46.678785;4.366893
2018/01/01 00:00:00;2018/12/31 23:59:59;ATMO BOURGOGNE-FRANCHE-COMTE;FR27ZRE01;ZR BOURGOGNE-FRANCHE-COMTE;FR32006;Macon Paul Bert;Périurbaine;NO2;Fond;Oui;mesures fixes;Moy. annuelle;16.0;16.259599720735334;µg-m3;98.0;100;98.0;R;1;46.316172;4.839994
2018/01/01 00:00:00;2018/12/31 23:59:59;ATMO BOURGOGNE-FRANCHE-COMTE;FR27ZRE01;ZR BOURGOGNE-FRANCHE-COMTE;FR32007;Le Creusot Molette;Urbaine;NO2;Fond;Oui;mesures fixes;Moy. annuelle;13.0;12.559931673987311;µg-m3;96.0;48;47.0;N;-1;46.802375;4.417486
2018/01/01 00:00:00;2018/12/31 23:59:59;ATMO BOURGOGNE-FRANCHE-COMTE;FR27ZAR04;ZAR CHALON;FR32014;Chalon St Marie;Urbaine;NO2;Fond;Oui;mesures fixes;Moy. annuelle;14.0;14.29960611677477;µg-m3;91.0;54;49.0;N;-1;46.797364;4.853842
2018/01/01 00:00:00;2018/12/31 23:59:59;ATMO AUVERGNE-RHÔNE-ALPES;FR84ZAR01;ZAR PAYS-DE-SAVOIE;FR33101;PASTEUR;Urbaine;NO2;Fond;Oui;mesures indicatives;Moy. annuelle;21.0;20.610688493018735;µg-m3;97.0;98;95.0;R;1;45.56472;5.928333
2018/01/01 00:00:00;2018/12/31 23:59:59;ATMO AUVERGNE-RHÔNE-ALPES;FR84ZAR01;ZAR PAYS-DE-SAVOIE;FR33102;CHAMBERY LE HAUT;Urbaine;NO2;Fond;Oui;mesures indicatives;Moy. annuelle;15.0;15.45259130434783;µg-m3;99.0;100;98.0;R;1;45.59667;5.918611
2018/01/01 00:00:00;2018/12/31 23:59:59;ATMO AUVERGNE-RHÔNE-ALPES;FR84ZAR01;ZAR PAYS-DE-SAVOIE;FR33105;Chambéry Trafic;Urbaine;NO2;Trafic;Oui;mesures indicatives;Moy. annuelle;31.0;30.864377910845057;µg-m3;86.0;99;86.0;R;1;45.56943;5.932986
2018/01/01 00:00:00;2018/12/31 23:59:59;ATMO AUVERGNE-RHÔNE-ALPES;FR84ZRE01;ZR AUVERGNE-RHONE-ALPES;FR33111;SAINT JEAN;Urbaine;NO2;Fond;Oui;mesures indicatives;Moy. annuelle;12.0;12.11288873531442;µg-m3;99.0;100;99.0;R;1;45.274723;6.349722
2018/01/01 00:00:00;2018/12/31 23:59:59;ATMO AUVERGNE-RHÔNE-ALPES;FR84ZAR03;ZAR VALLEE-DE-L-ARVE;FR33120;CHAMONIX;Urbaine;NO2;Fond;Oui;mesures indicatives;Moy. annuelle;22.0;22.206282962623213;µg-m3;100.0;100;100.0;R;1;45.9225;6.87
2018/01/01 00:00:00;2018/12/31 23:59:59;ATMO AUVERGNE-RHÔNE-ALPES;FR84ZAR04;ZAR VALLEE-DE-LA-TARANTAISE;FR33121;Albertville;Urbaine;NO2;Fond;Oui;estimation objective;Moy. annuelle;20.0;19.892551949568134;µg-m3;98.0;100;98.0;R;1;45.675;6.389722
2018/01/01 00:00:00;2018/12/31 23:59:59;ATMO AUVERGNE-RHÔNE-ALPES;FR84ZAR01;ZAR PAYS-DE-SAVOIE;FR33201;LOVERCHY;Urbaine;NO2;Fond;Oui;mesures indicatives;Moy. annuelle;23.0;22.676370416407632;µg-m3;95.0;97;92.0;R;1;45.89528;6.118333
2018/01/01 00:00:00;2018/12/31 23:59:59;ATMO AUVERGNE-RHÔNE-ALPES;FR84ZAR01;ZAR PAYS-DE-SAVOIE;FR33202;NOVEL;Urbaine;NO2;Fond;Oui;mesures fixes;Moy. annuelle;16.0;16.204332874828083;µg-m3;100.0;100;100.0;R;1;45.916943;6.135556
2018/01/01 00:00:00;2018/12/31 23:59:59;ATMO AUVERGNE-RHÔNE-ALPES;FR84ZAR01;ZAR PAYS-DE-SAVOIE;FR33203;ANNECY Rocade;Urbaine;NO2;Trafic;Oui;mesures fixes;Moy. annuelle;35.0;34.680356465680546;µg-m3;93.0;97;90.0;R;1;45.9097;6.11825
2018/01/01 00:00:00;2018/12/31 23:59:59;ATMO AUVERGNE-RHÔNE-ALPES;FR84ZAR01;ZAR PAYS-DE-SAVOIE;FR33211;ANNEMASSE;Urbaine;NO2;Fond;Oui;mesures indicatives;Moy. annuelle;19.0;19.151314575645763;µg-m3;99.0;100;99.0;R;1;46.19583;6.240556
2018/01/01 00:00:00;2018/12/31 23:59:59;ATMO AUVERGNE-RHÔNE-ALPES;FR84ZAR01;ZAR PAYS-DE-SAVOIE;FR33212;GAILLARD;Urbaine;NO2;Fond;Oui;mesures indicatives;Moy. annuelle;17.0;16.956431281360903;µg-m3;95.0;98;93.0;R;1;46.19369;6.214858
2018/01/01 00:00:00;2018/12/31 23:59:59;ATMO AUVERGNE-RHÔNE-ALPES;FR84ZAR01;ZAR PAYS-DE-SAVOIE;FR33213;ANNEMASSE TRAFIC;Urbaine;NO2;Trafic;Oui;mesures indicatives;Moy. annuelle;24.0;24.38944982232569;µg-m3;94.0;99;93.0;R;1;46.1908111;6.23553611111111
2018/01/01 00:00:00;2018/12/31 23:59:59;ATMO AUVERGNE-RHÔNE-ALPES;FR84ZAR03;ZAR VALLEE-DE-L-ARVE;FR33220;PASSY;Périurbaine;NO2;Fond;Oui;mesures indicatives;Moy. annuelle;15.0;14.792767610930014;µg-m3;95.0;96;91.0;R;1;45.92361;6.713611
2018/01/01 00:00:00;2018/12/31 23:59:59;ATMO AUVERGNE-RHÔNE-ALPES;FR84ZAR03;ZAR VALLEE-DE-L-ARVE;FR33232;BOSSONS;Urbaine;NO2;Trafic;Oui;mesures fixes;Moy. annuelle;44.0;43.73102456560803;µg-m3;98.0;97;95.0;R;1;45.907223;6.845833
2018/01/01 00:00:00;2018/12/31 23:59:59;ATMO AUVERGNE-RHÔNE-ALPES;FR84ZRE01;ZR AUVERGNE-RHONE-ALPES;FR33302;St Germain/Rhône;Rurale près des villes;NO2;Fond;Oui;mesures indicatives;Moy. annuelle;7.0;7.35907987375574;µg-m3;95.0;99;94.0;R;1;46.072224;5.820833
2018/01/01 00:00:00;2018/12/31 23:59:59;ATMO AUVERGNE-RHÔNE-ALPES;FR84ZRE01;ZR AUVERGNE-RHONE-ALPES;FR33305;Bourg-en-Bresse;Urbaine;NO2;Fond;Oui;mesures fixes;Moy. annuelle;15.0;15.121562717366098;µg-m3;99.0;99;98.0;R;1;46.211666;5.226389
2018/01/01 00:00:00;2018/12/31 23:59:59;LIG'AIR;FR24ZAG02;ZAG ORLEANS;FR34013;Gambetta;Urbaine;NO2;Trafic;Oui;mesures fixes;Moy. annuelle;29.0;29.163493879418866;µg-m3;100.0;100;100.0;R;1;47.907083;1.901139
2018/01/01 00:00:00;2018/12/31 23:59:59;LIG'AIR;FR24ZAG02;ZAG ORLEANS;FR34014;St Jean;Urbaine;NO2;Fond;Oui;mesures fixes;Moy. annuelle;12.0;11.847744581136489;µg-m3;97.0;100;97.0;R;1;47.917398;1.966258
2018/01/01 00:00:00;2018/12/31 23:59:59;LIG'AIR;FR24ZRE01;ZR CENTRE-VAL DE LOIRE;FR34018;Montargis;Urbaine;NO2;Fond;Oui;mesures fixes;Moy. annuelle;11.0;10.556851978952107;µg-m3;100.0;100;100.0;R;1;47.997889;2.7195
2018/01/01 00:00:00;2018/12/31 23:59:59;LIG'AIR;FR24ZAG01;ZAG TOURS;FR34024;Joué lès Tours;Urbaine;NO2;Fond;Oui;mesures fixes;Moy. annuelle;13.0;13.426515064065557;µg-m3;99.0;100;99.0;R;1;47.344139;0.653778
2018/01/01 00:00:00;2018/12/31 23:59:59;LIG'AIR;FR24ZAG01;ZAG TOURS;FR34025;La Bruyère;Urbaine;NO2;Fond;Oui;mesures fixes;Moy. annuelle;12.0;12.019091644516354;µg-m3;99.0;100;99.0;R;1;47.419083;0.682944
2018/01/01 00:00:00;2018/12/31 23:59:59;LIG'AIR;FR24ZAG01;ZAG TOURS;FR34028;Pompidou;Urbaine;NO2;Trafic;Oui;mesures fixes;Moy. annuelle;31.0;31.123130476533543;µg-m3;95.0;100;95.0;R;1;47.394639;0.704861
2018/01/01 00:00:00;2018/12/31 23:59:59;LIG'AIR;FR24ZAG02;ZAG ORLEANS;FR34029;La_Source-CNRS;Urbaine;NO2;Fond;Oui;mesures fixes;Moy. annuelle;8.0;8.428561492987063;µg-m3;99.0;99;98.0;R;1;47.83775;1.944667
2018/01/01 00:00:00;2018/12/31 23:59:59;LIG'AIR;FR24ZRE01;ZR CENTRE-VAL DE LOIRE;FR34030;Bourges-Baffier;Urbaine;NO2;Trafic;Oui;mesures fixes;Moy. annuelle;15.0;14.592384578772084;µg-m3;98.0;98;96.0;R;1;47.075044;2.407183
2018/01/01 00:00:00;2018/12/31 23:59:59;LIG'AIR;FR24ZRE01;ZR CENTRE-VAL DE LOIRE;FR34032;Leblanc;Urbaine;NO2;Fond;Oui;mesures fixes;Moy. annuelle;10.0;10.063589330880678;µg-m3;99.0;100;99.0;R;1;47.082778;2.405333
2018/01/01 00:00:00;2018/12/31 23:59:59;LIG'AIR;FR24ZRE01;ZR CENTRE-VAL DE LOIRE;FR34038;Verneuil;Rurale nationale;NO2;Fond;Oui;mesures fixes;Moy. annuelle;4.0;3.8319024725274593;µg-m3;100.0;100;100.0;R;1;46.814694;2.610069
2018/01/01 00:00:00;2018/12/31 23:59:59;LIG'AIR;FR24ZAR01;ZAR CHARTRES-DREUX;FR34042;Lucé;Urbaine;NO2;Fond;Oui;mesures fixes;Moy. annuelle;11.0;11.364622178606465;µg-m3;100.0;93;93.0;R;1;48.439306;1.468778
2018/01/01 00:00:00;2018/12/31 23:59:59;LIG'AIR;FR24ZAR01;ZAR CHARTRES-DREUX;FR34046;Dreux Centre;Urbaine;NO2;Fond;Oui;mesures fixes;Moy. annuelle;12.0;11.693781725888305;µg-m3;99.0;100;99.0;R;1;48.729694;1.358472
2018/01/01 00:00:00;2018/12/31 23:59:59;LIG'AIR;FR24ZAR01;ZAR CHARTRES-DREUX;FR34047;Saint-Remy;Périurbaine;NO2;Trafic;Oui;mesures fixes;Moy. annuelle;30.0;30.248490316372;µg-m3;96.0;99;95.0;R;1;48.760889;1.233639
2018/01/01 00:00:00;2018/12/31 23:59:59;LIG'AIR;FR24ZRE01;ZR CENTRE-VAL DE LOIRE;FR34051;Chateauroux Sud;Urbaine;NO2;Fond;Oui;mesures fixes;Moy. annuelle;9.0;9.370241411327802;µg-m3;99.0;99;98.0;R;1;46.798278;1.693139
2018/01/01 00:00:00;2018/12/31 23:59:59;LIG'AIR;FR24ZRE01;ZR CENTRE-VAL DE LOIRE;FR34057;Issoudun_Trafic_ZR;Urbaine;NO2;Trafic;Oui;mesures fixes;Moy. annuelle;14.0;14.281829703882963;µg-m3;99.0;100;99.0;R;1;46.942941;2.003258
2018/01/01 00:00:00;2018/12/31 23:59:59;LIG'AIR;FR24ZAR02;ZAR BLOIS;FR34061;Blois nord;Urbaine;NO2;Fond;Oui;mesures fixes;Moy. annuelle;9.0;9.484976363426732;µg-m3;99.0;100;99.0;R;1;47.594256;1.302667
2018/01/01 00:00:00;2018/12/31 23:59:59;ATMO NOUVELLE-AQUITAINE;FR75ZRE01;ZR NOUVELLE-AQUITAINE;FR35002;ST JUNIEN - Fontaine;Urbaine;NO2;Fond;Oui;mesures fixes;Moy. annuelle;7.0;6.830717592592611;µg-m3;99.0;100;99.0;R;1;45.884851;0.898431
2018/01/01 00:00:00;2018/12/31 23:59:59;ATMO NOUVELLE-AQUITAINE;FR75ZAR01;ZAR LIMOGES;FR35003;LIMOGES - Présidial;Urbaine;NO2;Fond;Oui;mesures fixes;Moy. annuelle;16.0;16.367561003816416;µg-m3;99.0;100;99.0;R;1;45.8311;1.256875
2018/01/01 00:00:00;2018/12/31 23:59:59;ATMO NOUVELLE-AQUITAINE;FR75ZRE01;ZR NOUVELLE-AQUITAINE;FR35004;BRIVE - Dalton;Urbaine;NO2;Fond;Oui;mesures fixes;Moy. annuelle;14.0;13.71017720306518;µg-m3;96.0;99;95.0;R;1;45.158738;1.537259
2018/01/01 00:00:00;2018/12/31 23:59:59;ATMO NOUVELLE-AQUITAINE;FR75ZRE01;ZR NOUVELLE-AQUITAINE;FR35005;GUERET - Nicolas;Urbaine;NO2;Fond;Oui;mesures fixes;Moy. annuelle;12.0;12.402678878076692;µg-m3;100.0;100;100.0;R;1;46.17362;1.873024
2018/01/01 00:00:00;2018/12/31 23:59:59;ATMO NOUVELLE-AQUITAINE;FR75ZRE01;ZR NOUVELLE-AQUITAINE;FR35006;TULLE - Hugo;Urbaine;NO2;Fond;Oui;mesures fixes;Moy. annuelle;13.0;13.091957720588287;µg-m3;99.0;100;99.0;R;1;45.262665;1.762752
2018/01/01 00:00:00;2018/12/31 23:59:59;ATMO NOUVELLE-AQUITAINE;FR75ZAR01;ZAR LIMOGES;FR35010;LIMOGES - Aine;Urbaine;NO2;Trafic;Oui;mesures fixes;Moy. annuelle;26.0;26.32248616236161;µg-m3;99.0;100;99.0;R;1;45.829975;1.254772
2018/01/01 00:00:00;2018/12/31 23:59:59;ATMO NOUVELLE-AQUITAINE;FR75ZRE01;ZR NOUVELLE-AQUITAINE;FR35019;SAILLAT - Ipaper;Périurbaine;NO2;Industrielle;Oui;mesures fixes;Moy. annuelle;6.0;5.757766544117627;µg-m3;99.0;100;99.0;R;1;45.875834;0.823951
2018/01/01 00:00:00;2018/12/31 23:59:59;ATMO NOUVELLE-AQUITAINE;FR75ZRE01;ZR NOUVELLE-AQUITAINE;FR35023;TULLE - Victor Hugo;Urbaine;NO2;Trafic;Oui;mesures fixes;Moy. annuelle;18.0;18.171627146361455;µg-m3;98.0;100;98.0;R;1;45.263615;1.763889
2018/01/01 00:00:00;2018/12/31 23:59:59;ATMO AUVERGNE-RHÔNE-ALPES;FR84ZAR02;ZAR VALLEE-DU-RHONE;FR36001;Valence Périurb. Sud;Périurbaine;NO2;Fond;Oui;mesures indicatives;Moy. annuelle;16.0;16.36352186855965;µg-m3;100.0;100;100.0;R;1;44.870243;4.876289
2018/01/01 00:00:00;2018/12/31 23:59:59;ATMO AUVERGNE-RHÔNE-ALPES;FR84ZAR02;ZAR VALLEE-DU-RHONE;FR36002;Valence Urb. Centre;Urbaine;NO2;Fond;Oui;mesures fixes;Moy. annuelle;21.0;20.55602124465988;µg-m3;99.0;100;99.0;R;1;44.933514;4.893481
2018/01/01 00:00:00;2018/12/31 23:59:59;ATMO AUVERGNE-RHÔNE-ALPES;FR84ZAR02;ZAR VALLEE-DU-RHONE;FR36019;Romans-sur-Isère;Urbaine;NO2;Fond;Oui;mesures indicatives;Moy. annuelle;13.0;12.997914909003264;µg-m3;95.0;100;95.0;R;1;45.0425;5.0443
2018/01/01 00:00:00;2018/12/31 23:59:59;ATMO AUVERGNE-RHÔNE-ALPES;FR84ZRE01;ZR AUVERGNE-RHONE-ALPES;FR36021;Drôme Rurale Sud-SND;Rurale nationale;NO2;Fond;Oui;mesures fixes;Moy. annuelle;2.0;1.5928195532686273;µg-m3;99.0;99;98.0;R;1;44.569443;5.278972
2018/01/01 00:00:00;2018/12/31 23:59:59;ATMO AUVERGNE-RHÔNE-ALPES;FR84ZAR02;ZAR VALLEE-DU-RHONE;FR36032;A7 Valence Est;Urbaine;NO2;Trafic;Oui;mesures fixes;Moy. annuelle;33.0;32.685262796289926;µg-m3;100.0;100;100.0;R;1;44.9492;4.890133
2018/01/01 00:00:00;2018/12/31 23:59:59;GWAD'AIR;FR01ZAG01;ZAG POINTE-A-PITRE;FR37001;ST de Baie mahault;Périurbaine;NO2;Fond;Oui;estimation objective;Moy. annuelle;9.0;9.431511027686524;µg-m3;97.0;100;97.0;R;1;16.257308;-61.591725
2018/01/01 00:00:00;2018/12/31 23:59:59;GWAD'AIR;FR01ZAG01;ZAG POINTE-A-PITRE;FR37002;ST de Pointe à Pitre;Urbaine;NO2;Fond;Oui;estimation objective;Moy. annuelle;11.0;11.391028037383181;µg-m3;86.0;7;6.0;N;-1;16.238056;-61.537539
2018/01/01 00:00:00;2018/12/31 23:59:59;GWAD'AIR;FR01ZAG01;ZAG POINTE-A-PITRE;FR37006;PTP-VICTOIRE;Urbaine;NO2;Fond;Oui;mesures fixes;Moy. annuelle;12.0;12.121385102239458;µg-m3;98.0;95;94.0;R;1;16.23674;-61.534101
2018/01/01 00:00:00;2018/12/31 23:59:59;GWAD'AIR;FR01ZAG01;ZAG POINTE-A-PITRE;FR37007;ST Vieux Bourg ABYMES;Périurbaine;NO2;Trafic;Oui;estimation objective;Moy. annuelle;8.0;7.924991091578562;µg-m3;99.0;97;96.0;R;1;16.25066;-61.527794
2018/01/01 00:00:00;2018/12/31 23:59:59;ATMO REUNION;FR04ZAR01;ZAR SAINT-DENIS;FR38001;LYC. LISLET GEOFFROY;Urbaine;NO2;Fond;Oui;mesures fixes;Moy. annuelle;8.0;8.266714810924357;µg-m3;87.0;100;87.0;R;1;-20.889893;55.46884
2018/01/01 00:00:00;2018/12/31 23:59:59;ATMO REUNION;FR04ZAR01;ZAR SAINT-DENIS;FR38008;Ecole JOINVILLE;Urbaine;NO2;Fond;Oui;mesures fixes;Moy. annuelle;7.0;7.106552170332927;µg-m3;97.0;100;97.0;R;1;-20.884575;55.453906
2018/01/01 00:00:00;2018/12/31 23:59:59;ATMO REUNION;FR04ZAR01;ZAR SAINT-DENIS;FR38009;Ecole La Marine;Périurbaine;NO2;Trafic;Oui;mesures fixes;Moy. annuelle;4.0;4.477411003236236;µg-m3;71.0;99;71.0;N;-1;-20.910585;55.618977
2018/01/01 00:00:00;2018/12/31 23:59:59;ATMO REUNION;FR04ZAR02;ZAR VOLCAN;FR38011;Station Luther King;Urbaine;NO2;Fond;Oui;mesures fixes;Moy. annuelle;10.0;9.92715961606824;µg-m3;96.0;100;96.0;R;1;-21.334406;55.45906
2018/01/01 00:00:00;2018/12/31 23:59:59;ATMO REUNION;FR04ZAR02;ZAR VOLCAN;FR38014;Ligne Paradis;Périurbaine;NO2;Fond;Oui;mesures fixes;Moy. annuelle;12.0;11.570235721824753;µg-m3;97.0;100;97.0;R;1;-21.312895;55.474194
2018/01/01 00:00:00;2018/12/31 23:59:59;ATMO REUNION;FR04ZAR01;ZAR SAINT-DENIS;FR38018;Centre Penitencier;Périurbaine;NO2;Trafic;Oui;mesures fixes;Moy. annuelle;13.0;13.149993920972676;µg-m3;94.0;100;94.0;R;1;-20.9498;55.313828
2018/01/01 00:00:00;2018/12/31 23:59:59;ATMO REUNION;FR04ZAR01;ZAR SAINT-DENIS;FR38020;Plateau Caillou;Urbaine;NO2;Fond;Oui;mesures fixes;Moy. annuelle;9.0;9.196056133559141;µg-m3;94.0;100;94.0;R;1;-21.022112;55.266773
2018/01/01 00:00:00;2018/12/31 23:59:59;ATMO REUNION;FR04ZAR01;ZAR SAINT-DENIS;FR38021;Grand Fond;Périurbaine;NO2;Fond;Oui;mesures fixes;Moy. annuelle;6.0;5.699497150519605;µg-m3;68.0;100;68.0;N;-1;-21.032139;55.232563
2018/01/01 00:00:00;2018/12/31 23:59:59;ATMO REUNION;FR04ZAR02;ZAR VOLCAN;FR38023;BD BANKS;Urbaine;NO2;Trafic;Oui;mesures fixes;Moy. annuelle;19.0;19.32436819395934;µg-m3;56.0;99;56.0;N;-1;-21.331703;55.478949
2018/01/01 00:00:00;2018/12/31 23:59:59;ATMO REUNION;FR04ZRE01;ZR LA REUNION;FR38024;RDT SAINT-LEU;Rurale près des villes;NO2;Trafic;Oui;estimation objective;Moy. annuelle;15.0;15.097240970988764;µg-m3;96.0;100;96.0;R;1;-21.213212;55.302844
2018/01/01 00:00:00;2018/12/31 23:59:59;ATMO REUNION;FR04ZAR01;ZAR SAINT-DENIS;FR38091;Terrain de Sel;Urbaine;NO2;Trafic;Oui;mesures fixes;Moy. annuelle;11.0;11.048418178898377;µg-m3;72.0;99;71.0;N;-1;-20.928686;55.332581
2018/01/01 00:00:00;2018/12/31 23:59:59;ATMO REUNION;FR04ZAR02;ZAR VOLCAN;FR38098;Sarda Garriga;Urbaine;NO2;Trafic;Oui;mesures fixes;Moy. annuelle;8.0;7.820939011442737;µg-m3;97.0;100;97.0;R;1;-21.277075;55.403065
2018/01/01 00:00:00;2018/12/31 23:59:59;MADININAIR;FR02ZAR01;ZAR FORT-DE-FRANCE;FR39009;Lamentin;Urbaine;NO2;Fond;Oui;mesures fixes;Moy. annuelle;10.0;10.382685421994886;µg-m3;90.0;100;89.0;R;1;14.610653;-61.002586
2018/01/01 00:00:00;2018/12/31 23:59:59;MADININAIR;FR02ZAR01;ZAR FORT-DE-FRANCE;FR39010;Concorde;Urbaine;NO2;Trafic;Oui;mesures fixes;Moy. annuelle;32.0;32.01050724637676;µg-m3;95.0;100;95.0;R;1;14.613844;-61.063492
2018/01/01 00:00:00;2018/12/31 23:59:59;MADININAIR;FR02ZAR01;ZAR FORT-DE-FRANCE;FR39011;Reneville;Urbaine;NO2;Trafic;Oui;mesures fixes;Moy. annuelle;17.0;16.55971028725755;µg-m3;93.0;100;93.0;R;1;14.614111;-61.0530833
2018/01/01 00:00:00;2018/12/31 23:59:59;MADININAIR;FR02ZRE01;ZR MARTINIQUE;FR39014;Sainte_Luce;Périurbaine;NO2;Fond;Oui;mesures fixes;Moy. annuelle;1.0;1.3192867540029156;µg-m3;95.0;99;94.0;R;1;14.468869;-60.927417
2018/01/01 00:00:00;2018/12/31 23:59:59;MADININAIR;FR02ZAR01;ZAR FORT-DE-FRANCE;FR39016;Robert Bourg;Urbaine;NO2;Fond;Oui;mesures fixes;Moy. annuelle;2.0;1.6130806257521166;µg-m3;95.0;100;95.0;R;1;14.678025;-60.939056
2018/01/01 00:00:00;2018/12/31 23:59:59;MADININAIR;FR02ZAR01;ZAR FORT-DE-FRANCE;FR39017;Bellevue;Périurbaine;NO2;Fond;Oui;mesures fixes;Moy. annuelle;5.0;5.102697368421023;µg-m3;90.0;97;87.0;R;1;14.601469;-61.085331
2018/01/01 00:00:00;2018/12/31 23:59:59;ATMO GUYANE;FR03ZRE01;ZR GUYANE;FR40006;Brady;Urbaine;NO2;Fond;Oui;mesures fixes;Moy. annuelle;1.0;1.2309093161546054;µg-m3;94.0;98;92.0;R;1;5.164248;-52.64649
2018/01/01 00:00:00;2018/12/31 23:59:59;ATMO GUYANE;FR03ZAR01;ZAR ILE-DE-CAYENNE;FR40007;Kalou;Périurbaine;NO2;Fond;Oui;mesures fixes;Moy. annuelle;3.0;2.5493564073226755;µg-m3;84.0;95;80.0;N;-1;4.84816;-52.3238
2018/01/01 00:00:00;2018/12/31 23:59:59;ATMO GUYANE;FR03ZAR01;ZAR ILE-DE-CAYENNE;FR40008;Caiena3;Urbaine;NO2;Fond;Oui;mesures fixes;Moy. annuelle;3.0;2.7314322414900443;µg-m3;89.0;100;89.0;R;1;4.9378467;-52.32093
2018/01/01 00:00:00;2018/12/31 23:59:59;QUALITAIR CORSE;FR94ZAR01;ZAR AJACCIO;FR41001;AJACCIO CANETTO;Urbaine;NO2;Fond;Oui;mesures fixes;Moy. annuelle;16.0;16.06242829827923;µg-m3;98.0;98;96.0;R;1;41.924694;8.735694
2018/01/01 00:00:00;2018/12/31 23:59:59;QUALITAIR CORSE;FR94ZAR02;ZAR BASTIA;FR41002;BASTIA GIRAUD;Urbaine;NO2;Fond;Oui;mesures fixes;Moy. annuelle;12.0;12.113609782030881;µg-m3;92.0;93;86.0;R;1;42.697917;9.446417
2018/01/01 00:00:00;2018/12/31 23:59:59;QUALITAIR CORSE;FR94ZAR01;ZAR AJACCIO;FR41003;AJACCIO PIATANICCIA;Périurbaine;NO2;Industrielle;Oui;mesures fixes;Moy. annuelle;7.0;7.403839579224184;µg-m3;91.0;96;87.0;R;1;41.958028;8.820278
2018/01/01 00:00:00;2018/12/31 23:59:59;QUALITAIR CORSE;FR94ZAR02;ZAR BASTIA;FR41004;BASTIA LA MARANA;Périurbaine;NO2;Industrielle;Oui;mesures fixes;Moy. annuelle;6.0;6.072400878212582;µg-m3;92.0;96;88.0;R;1;42.535833;9.475972
2018/01/01 00:00:00;2018/12/31 23:59:59;QUALITAIR CORSE;FR94ZAR01;ZAR AJACCIO;FR41007;AJACCIO SPOSATA;Périurbaine;NO2;Fond;Oui;mesures fixes;Moy. annuelle;9.0;8.908368983957244;µg-m3;94.0;91;85.0;R;1;41.949222;8.757583
2018/01/01 00:00:00;2018/12/31 23:59:59;QUALITAIR CORSE;FR94ZAR02;ZAR BASTIA;FR41017;BASTIA MONTESORO;Périurbaine;NO2;Fond;Oui;mesures fixes;Moy. annuelle;7.0;7.2095238095238106;µg-m3;83.0;100;83.0;N;-1;42.671333;9.434639
2018/01/01 00:00:00;2018/12/31 23:59:59;QUALITAIR CORSE;FR94ZAR02;ZAR BASTIA;FR41020;BASTIA SAINT NICOLAS;Urbaine;NO2;Trafic;Oui;mesures fixes;Moy. annuelle;33.0;32.55301450012726;µg-m3;94.0;96;90.0;R;1;42.700083;9.451722
2018/01/01 00:00:00;2018/12/31 23:59:59;QUALITAIR CORSE;FR94ZAR01;ZAR AJACCIO;FR41022;AJACCIO DIAMANT;Urbaine;NO2;Trafic;Oui;mesures fixes;Moy. annuelle;28.0;28.186080408113614;µg-m3;96.0;98;94.0;R;1;41.918306;8.736778
2018/01/01 00:00:00;2018/12/31 23:59:59;QUALITAIR CORSE;FR94ZRE01;ZR CORSE;FR41024;VENACO;Rurale régionale;NO2;Fond;Oui;mesures fixes;Moy. annuelle;1.0;1.3144686039422822;µg-m3;93.0;61;56.0;N;-1;42.236028;9.190028
2018/01/01 00:00:00;2018/12/31 23:59:59;QUALITAIR CORSE;FR94ZAR01;ZAR AJACCIO;FR41059;AJACCIO ABBATUCCI;Urbaine;NO2;Trafic;Oui;mesures fixes;Moy. annuelle;31.0;31.116328247026217;µg-m3;97.0;98;95.0;R;1;41.92575;8.738278
2018/01/01 00:00:00;2018/12/31 23:59:59;QUALITAIR CORSE;FR94ZAR02;ZAR BASTIA;FR41060;BASTIA FANGO;Urbaine;NO2;Trafic;Oui;mesures fixes;Moy. annuelle;21.0;20.71401326699831;µg-m3;99.0;98;96.0;R;1;42.702833;9.446389
2018/01/01 00:00:00;2018/12/31 23:59:59;ATMO BOURGOGNE-FRANCHE-COMTE;FR27ZAR03;ZAR BESANCON;FR82001;Besancon Mégevand;Urbaine;NO2;Trafic;Oui;mesures fixes;Moy. annuelle;24.0;24.22088744588729;µg-m3;95.0;100;95.0;R;1;47.235973;6.023611
2018/01/01 00:00:00;2018/12/31 23:59:59;ATMO BOURGOGNE-FRANCHE-COMTE;FR27ZAR03;ZAR BESANCON;FR82006;Besancon Prevoyance;Urbaine;NO2;Fond;Oui;mesures fixes;Moy. annuelle;17.0;17.203520415524473;µg-m3;79.0;100;79.0;N;-1;47.2474;6.015419
2018/01/01 00:00:00;2018/12/31 23:59:59;ATMO BOURGOGNE-FRANCHE-COMTE;FR27ZAR01;ZAR BELFORT-MONTBELIARD;FR82010;Montbéliard centre;Urbaine;NO2;Fond;Oui;mesures fixes;Moy. annuelle;19.0;19.005381113575336;µg-m3;98.0;99;98.0;R;1;47.510307;6.794
2018/01/01 00:00:00;2018/12/31 23:59:59;ATMO BOURGOGNE-FRANCHE-COMTE;FR27ZAR01;ZAR BELFORT-MONTBELIARD;FR82020;Belfort Octroi;Urbaine;NO2;Trafic;Oui;mesures fixes;Moy. annuelle;24.0;24.024933595103413;µg-m3;99.0;100;99.0;R;1;47.640667;6.859278
2018/01/01 00:00:00;2018/12/31 23:59:59;ATMO BOURGOGNE-FRANCHE-COMTE;FR27ZRE01;ZR BOURGOGNE-FRANCHE-COMTE;FR82040;Dole centre;Urbaine;NO2;Fond;Oui;mesures fixes;Moy. annuelle;12.0;12.116235371682905;µg-m3;98.0;70;69.0;N;-1;47.09672;5.496389
2018/01/01 00:00:00;2018/12/31 23:59:59;ATMO BOURGOGNE-FRANCHE-COMTE;FR27ZRE01;ZR BOURGOGNE-FRANCHE-COMTE;FR82041;Tavaux;Rurale près des villes;NO2;Industrielle;Oui;mesures fixes;Moy. annuelle;9.0;9.244695588771439;µg-m3;95.0;99;94.0;R;1;47.04261;5.400897
2018/01/01 00:00:00;2018/12/31 23:59:59;ATMO BOURGOGNE-FRANCHE-COMTE;FR27ZRE01;ZR BOURGOGNE-FRANCHE-COMTE;FR82042;Damparis;Rurale près des villes;NO2;Industrielle;Oui;mesures fixes;Moy. annuelle;13.0;13.297807655038735;µg-m3;96.0;98;94.0;R;1;47.06564;5.415028
2018/01/01 00:00:00;2018/12/31 23:59:59;ATMO BOURGOGNE-FRANCHE-COMTE;FR27ZRE01;ZR BOURGOGNE-FRANCHE-COMTE;FR82050;Lons-le-Saunier CV;Urbaine;NO2;Fond;Oui;mesures fixes;Moy. annuelle;12.0;11.878807166430942;µg-m3;98.0;49;48.0;N;-1;46.671321;5.55662
2018/01/01 00:00:00;2018/12/31 23:59:59;ATMO BOURGOGNE-FRANCHE-COMTE;FR27ZRE01;ZR BOURGOGNE-FRANCHE-COMTE;FR82060;Vesoul Pres Caillet;Urbaine;NO2;Fond;Oui;mesures fixes;Moy. annuelle;13.0;12.789156355455583;µg-m3;99.0;51;51.0;N;-1;47.620022;6.157642
